{
  "count": 10785236,
  "photos": [{
    "photo_id": 27932,
    "photo_title": "Atardecer en Embalse",
    "photo_url": "http://www.panoramio.com/photo/27932",
    "photo_file_url": "http://mw2.google.com/mw-panoramio/photos/medium/27932.jpg",
    "longitude": -64.404945,
    "latitude": -32.202924,
    "width": 500,
    "height": 375,
    "upload_date": "25 June 2006",
    "owner_id": 4483,
    "owner_name": "Miguel Coranti",
    "owner_url": "http://www.panoramio.com/user/4483"
  }, {
    "photo_id": 522084,
    "photo_title": "In Memoriam Antoine de Saint Exupéry",
    "photo_url": "http://www.panoramio.com/photo/522084",
    "photo_file_url": "http://mw2.google.com/mw-panoramio/photos/medium/522084.jpg",
    "longitude": 17.470493,
    "latitude": 47.867077,
    "width": 500,
    "height": 350,
    "upload_date": "21 January 2007",
    "owner_id": 109117,
    "owner_name": "Busa Péter",
    "owner_url": "http://www.panoramio.com/user/109117"
  }, {
    "photo_id": 1578881,
    "photo_title": "Rosina Lamberti,Sunset,Templestowe , Victoria, Australia",
    "photo_url": "http://www.panoramio.com/photo/1578881",
    "photo_file_url": "http://mw2.google.com/mw-panoramio/photos/medium/1578881.jpg",
    "longitude": 145.141754,
    "latitude": -37.766372,
    "width": 500,
    "height": 474,
    "upload_date": "01 April 2007",
    "owner_id": 140796,
    "owner_name": "rosina lamberti",
    "owner_url": "http://www.panoramio.com/user/140796"
  }, {
    "photo_id": 97671,
    "photo_title": "kin-dza-dza",
    "photo_url": "http://www.panoramio.com/photo/97671",
    "photo_file_url": "http://mw2.google.com/mw-panoramio/photos/medium/97671.jpg",
    "longitude": 30.785408,
    "latitude": 46.639301,
    "width": 500,
    "height": 375,
    "upload_date": "09 December 2006",
    "owner_id": 13058,
    "owner_name": "Kyryl",
    "owner_url": "http://www.panoramio.com/user/13058"
  }, {
    "photo_id": 25514,
    "photo_title": "Arenal",
    "photo_url": "http://www.panoramio.com/photo/25514",
    "photo_file_url": "http://mw2.google.com/mw-panoramio/photos/medium/25514.jpg",
    "longitude": -84.693432,
    "latitude": 10.479372,
    "width": 500,
    "height": 375,
    "upload_date": "17 June 2006",
    "owner_id": 4112,
    "owner_name": "Roberto Garcia",
    "owner_url": "http://www.panoramio.com/user/4112"
  }, {
    "photo_id": 57823,
    "photo_title": "Maria Alm",
    "photo_url": "http://www.panoramio.com/photo/57823",
    "photo_file_url": "http://mw2.google.com/mw-panoramio/photos/medium/57823.jpg",
    "longitude": 12.900009,
    "latitude": 47.409968,
    "width": 500,
    "height": 333,
    "upload_date": "05 October 2006",
    "owner_id": 8060,
    "owner_name": "Norbert MAIER",
    "owner_url": "http://www.panoramio.com/user/8060"
  }, {
    "photo_id": 532693,
    "photo_title": "Wheatfield in afternoon light",
    "photo_url": "http://www.panoramio.com/photo/532693",
    "photo_file_url": "http://mw2.google.com/mw-panoramio/photos/medium/532693.jpg",
    "longitude": 11.272659,
    "latitude": 59.637472,
    "width": 500,
    "height": 333,
    "upload_date": "22 January 2007",
    "owner_id": 39160,
    "owner_name": "Snemann",
    "owner_url": "http://www.panoramio.com/user/39160"
  }, {
    "photo_id": 57819,
    "photo_title": "Burg Hohenwerfen",
    "photo_url": "http://www.panoramio.com/photo/57819",
    "photo_file_url": "http://mw2.google.com/mw-panoramio/photos/medium/57819.jpg",
    "longitude": 13.189259,
    "latitude": 47.483221,
    "width": 500,
    "height": 333,
    "upload_date": "05 October 2006",
    "owner_id": 8060,
    "owner_name": "Norbert MAIER",
    "owner_url": "http://www.panoramio.com/user/8060"
  }, {
    "photo_id": 1282387,
    "photo_title": "Thunderstorm in Martinique",
    "photo_url": "http://www.panoramio.com/photo/1282387",
    "photo_file_url": "http://mw2.google.com/mw-panoramio/photos/medium/1282387.jpg",
    "longitude": -61.013432,
    "latitude": 14.493688,
    "width": 500,
    "height": 400,
    "upload_date": "12 March 2007",
    "owner_id": 49870,
    "owner_name": "Jean-Michel Raggioli",
    "owner_url": "http://www.panoramio.com/user/49870"
  }, {
    "photo_id": 945976,
    "photo_title": "Al tard",
    "photo_url": "http://www.panoramio.com/photo/945976",
    "photo_file_url": "http://mw2.google.com/mw-panoramio/photos/medium/945976.jpg",
    "longitude": 0.490866,
    "latitude": 40.903783,
    "width": 335,
    "height": 500,
    "upload_date": "21 February 2007",
    "owner_id": 3022,
    "owner_name": "Arcadi",
    "owner_url": "http://www.panoramio.com/user/3022"
  }, {
    "photo_id": 73514,
    "photo_title": "Hintersee bei Ramsau",
    "photo_url": "http://www.panoramio.com/photo/73514",
    "photo_file_url": "http://mw2.google.com/mw-panoramio/photos/medium/73514.jpg",
    "longitude": 12.852459,
    "latitude": 47.609519,
    "width": 500,
    "height": 333,
    "upload_date": "30 October 2006",
    "owner_id": 8060,
    "owner_name": "Norbert MAIER",
    "owner_url": "http://www.panoramio.com/user/8060"
  }, {
    "photo_id": 298967,
    "photo_title": "Antelope Canyon, Ray of Light",
    "photo_url": "http://www.panoramio.com/photo/298967",
    "photo_file_url": "http://mw2.google.com/mw-panoramio/photos/medium/298967.jpg",
    "longitude": -111.407890,
    "latitude": 36.894037,
    "width": 500,
    "height": 375,
    "upload_date": "04 January 2007",
    "owner_id": 64388,
    "owner_name": "Artusi",
    "owner_url": "http://www.panoramio.com/user/64388"
  }, {
    "photo_id": 88151,
    "photo_title": "Val Verzasca - Switzerland",
    "photo_url": "http://www.panoramio.com/photo/88151",
    "photo_file_url": "http://mw2.google.com/mw-panoramio/photos/medium/88151.jpg",
    "longitude": 8.838158,
    "latitude": 46.257746,
    "width": 500,
    "height": 375,
    "upload_date": "28 November 2006",
    "owner_id": 11098,
    "owner_name": "Michele Masnata",
    "owner_url": "http://www.panoramio.com/user/11098"
  }, {
    "photo_id": 6463,
    "photo_title": "Guggenheim and spider",
    "photo_url": "http://www.panoramio.com/photo/6463",
    "photo_file_url": "http://mw2.google.com/mw-panoramio/photos/medium/6463.jpg",
    "longitude": -2.933736,
    "latitude": 43.269159,
    "width": 500,
    "height": 375,
    "upload_date": "09 January 2006",
    "owner_id": 414,
    "owner_name": "Sonia Villegas",
    "owner_url": "http://www.panoramio.com/user/414"
  }, {
    "photo_id": 107980,
    "photo_title": "Mostar",
    "photo_url": "http://www.panoramio.com/photo/107980",
    "photo_file_url": "http://mw2.google.com/mw-panoramio/photos/medium/107980.jpg",
    "longitude": 17.815200,
    "latitude": 43.337255,
    "width": 369,
    "height": 500,
    "upload_date": "10 December 2006",
    "owner_id": 12954,
    "owner_name": "Ziębol",
    "owner_url": "http://www.panoramio.com/user/12954"
  }, {
    "photo_id": 9439,
    "photo_title": "Bora Bora",
    "photo_url": "http://www.panoramio.com/photo/9439",
    "photo_file_url": "http://mw2.google.com/mw-panoramio/photos/medium/9439.jpg",
    "longitude": -151.750000,
    "latitude": -16.500000,
    "width": 500,
    "height": 375,
    "upload_date": "02 February 2006",
    "owner_id": 1600,
    "owner_name": "heavenearth",
    "owner_url": "http://www.panoramio.com/user/1600"
  }, {
    "photo_id": 673131,
    "photo_title": "Nivane in Ørsta",
    "photo_url": "http://www.panoramio.com/photo/673131",
    "photo_file_url": "http://mw2.google.com/mw-panoramio/photos/medium/673131.jpg",
    "longitude": 6.108742,
    "latitude": 62.226676,
    "width": 500,
    "height": 334,
    "upload_date": "03 February 2007",
    "owner_id": 56091,
    "owner_name": "Kjetil Vaage Øie",
    "owner_url": "http://www.panoramio.com/user/56091"
  }, {
    "photo_id": 346269,
    "photo_title": "italy-toscany",
    "photo_url": "http://www.panoramio.com/photo/346269",
    "photo_file_url": "http://mw2.google.com/mw-panoramio/photos/medium/346269.jpg",
    "longitude": 11.616282,
    "latitude": 43.064389,
    "width": 500,
    "height": 334,
    "upload_date": "08 January 2007",
    "owner_id": 69671,
    "owner_name": "illusandpics.com",
    "owner_url": "http://www.panoramio.com/user/69671"
  }, {
    "photo_id": 290039,
    "photo_title": "Gentoo Penguins at Sunrise",
    "photo_url": "http://www.panoramio.com/photo/290039",
    "photo_file_url": "http://mw2.google.com/mw-panoramio/photos/medium/290039.jpg",
    "longitude": -59.070311,
    "latitude": -52.430295,
    "width": 500,
    "height": 284,
    "upload_date": "03 January 2007",
    "owner_id": 61890,
    "owner_name": "enriquevidalphoto.com",
    "owner_url": "http://www.panoramio.com/user/61890"
  }, {
    "photo_id": 1870141,
    "photo_title": "Les Mines",
    "photo_url": "http://www.panoramio.com/photo/1870141",
    "photo_file_url": "http://mw2.google.com/mw-panoramio/photos/medium/1870141.jpg",
    "longitude": 1.314712,
    "latitude": 45.922199,
    "width": 500,
    "height": 379,
    "upload_date": "21 April 2007",
    "owner_id": 372189,
    "owner_name": "Phil©",
    "owner_url": "http://www.panoramio.com/user/372189"
  }, {
    "photo_id": 516809,
    "photo_title": "Az őrszem",
    "photo_url": "http://www.panoramio.com/photo/516809",
    "photo_file_url": "http://mw2.google.com/mw-panoramio/photos/medium/516809.jpg",
    "longitude": 18.239279,
    "latitude": 47.535341,
    "width": 500,
    "height": 286,
    "upload_date": "21 January 2007",
    "owner_id": 109117,
    "owner_name": "Busa Péter",
    "owner_url": "http://www.panoramio.com/user/109117"
  }, {
    "photo_id": 67347,
    "photo_title": "Amanecer en el Salar de Uyuni",
    "photo_url": "http://www.panoramio.com/photo/67347",
    "photo_file_url": "http://mw2.google.com/mw-panoramio/photos/medium/67347.jpg",
    "longitude": -67.549438,
    "latitude": -20.552438,
    "width": 500,
    "height": 375,
    "upload_date": "20 October 2006",
    "owner_id": 9080,
    "owner_name": "Marco Teodonio",
    "owner_url": "http://www.panoramio.com/user/9080"
  }, {
    "photo_id": 405822,
    "photo_title": "tulip",
    "photo_url": "http://www.panoramio.com/photo/405822",
    "photo_file_url": "http://mw2.google.com/mw-panoramio/photos/medium/405822.jpg",
    "longitude": 139.011619,
    "latitude": 37.871500,
    "width": 500,
    "height": 386,
    "upload_date": "13 January 2007",
    "owner_id": 86411,
    "owner_name": "中村脩-Osamu nakamura",
    "owner_url": "http://www.panoramio.com/user/86411"
  }, {
    "photo_id": 233619,
    "photo_title": "Warsaw Bridge 01 [www.wierzchon.com]",
    "photo_url": "http://www.panoramio.com/photo/233619",
    "photo_file_url": "http://mw2.google.com/mw-panoramio/photos/medium/233619.jpg",
    "longitude": 21.035728,
    "latitude": 52.242353,
    "width": 500,
    "height": 500,
    "upload_date": "25 December 2006",
    "owner_id": 47836,
    "owner_name": "Andrzej Wierzchon",
    "owner_url": "http://www.panoramio.com/user/47836"
  }, {
    "photo_id": 1516726,
    "photo_title": "Облако над вулканом Камень. www.photo-sturm.ru",
    "photo_url": "http://www.panoramio.com/photo/1516726",
    "photo_file_url": "http://mw2.google.com/mw-panoramio/photos/medium/1516726.jpg",
    "longitude": 160.587502,
    "latitude": 56.081999,
    "width": 414,
    "height": 500,
    "upload_date": "27 March 2007",
    "owner_id": 268724,
    "owner_name": "Korotnev AV",
    "owner_url": "http://www.panoramio.com/user/268724"
  }, {
    "photo_id": 70975,
    "photo_title": "Hospiz",
    "photo_url": "http://www.panoramio.com/photo/70975",
    "photo_file_url": "http://mw2.google.com/mw-panoramio/photos/medium/70975.jpg",
    "longitude": 8.024461,
    "latitude": 46.245801,
    "width": 500,
    "height": 500,
    "upload_date": "26 October 2006",
    "owner_id": 9379,
    "owner_name": "Davide Bernacchi",
    "owner_url": "http://www.panoramio.com/user/9379"
  }, {
    "photo_id": 882660,
    "photo_title": "icy_chains_1_hdr_web",
    "photo_url": "http://www.panoramio.com/photo/882660",
    "photo_file_url": "http://mw2.google.com/mw-panoramio/photos/medium/882660.jpg",
    "longitude": -79.798197,
    "latitude": 43.321353,
    "width": 500,
    "height": 333,
    "upload_date": "18 February 2007",
    "owner_id": 17488,
    "owner_name": "John Gillett",
    "owner_url": "http://www.panoramio.com/user/17488"
  }, {
    "photo_id": 9363990,
    "photo_title": "Marble Cave",
    "photo_url": "http://www.panoramio.com/photo/9363990",
    "photo_file_url": "http://mw2.google.com/mw-panoramio/photos/medium/9363990.jpg",
    "longitude": -72.607527,
    "latitude": -46.647138,
    "width": 500,
    "height": 375,
    "upload_date": "14 April 2008",
    "owner_id": 947917,
    "owner_name": "Dejah",
    "owner_url": "http://www.panoramio.com/user/947917"
  }, {
    "photo_id": 1884507,
    "photo_title": "fukushimagata",
    "photo_url": "http://www.panoramio.com/photo/1884507",
    "photo_file_url": "http://mw2.google.com/mw-panoramio/photos/medium/1884507.jpg",
    "longitude": 139.243813,
    "latitude": 37.909669,
    "width": 500,
    "height": 384,
    "upload_date": "22 April 2007",
    "owner_id": 86411,
    "owner_name": "中村脩-Osamu nakamura",
    "owner_url": "http://www.panoramio.com/user/86411"
  }, {
    "photo_id": 1343502,
    "photo_title": "вулкан Карымский",
    "photo_url": "http://www.panoramio.com/photo/1343502",
    "photo_file_url": "http://mw2.google.com/mw-panoramio/photos/medium/1343502.jpg",
    "longitude": 159.480114,
    "latitude": 54.025419,
    "width": 500,
    "height": 334,
    "upload_date": "16 March 2007",
    "owner_id": 268724,
    "owner_name": "Korotnev AV",
    "owner_url": "http://www.panoramio.com/user/268724"
  }, {
    "photo_id": 97723,
    "photo_title": "Torrent de pareis",
    "photo_url": "http://www.panoramio.com/photo/97723",
    "photo_file_url": "http://mw2.google.com/mw-panoramio/photos/medium/97723.jpg",
    "longitude": 2.805762,
    "latitude": 39.852352,
    "width": 401,
    "height": 500,
    "upload_date": "09 December 2006",
    "owner_id": 13121,
    "owner_name": "Andreas G.M.",
    "owner_url": "http://www.panoramio.com/user/13121"
  }, {
    "photo_id": 537672,
    "photo_title": "Sr. da Pedra",
    "photo_url": "http://www.panoramio.com/photo/537672",
    "photo_file_url": "http://mw2.google.com/mw-panoramio/photos/medium/537672.jpg",
    "longitude": -8.659008,
    "latitude": 41.068821,
    "width": 500,
    "height": 366,
    "upload_date": "23 January 2007",
    "owner_id": 115618,
    "owner_name": "Paulo J Moreira",
    "owner_url": "http://www.panoramio.com/user/115618"
  }, {
    "photo_id": 204924,
    "photo_title": "zaldiak",
    "photo_url": "http://www.panoramio.com/photo/204924",
    "photo_file_url": "http://mw2.google.com/mw-panoramio/photos/medium/204924.jpg",
    "longitude": -1.806951,
    "latitude": 43.245140,
    "width": 500,
    "height": 346,
    "upload_date": "21 December 2006",
    "owner_id": 2575,
    "owner_name": "mikel ortega",
    "owner_url": "http://www.panoramio.com/user/2575"
  }, {
    "photo_id": 114795,
    "photo_title": "TIBAUM-BIZZAR",
    "photo_url": "http://www.panoramio.com/photo/114795",
    "photo_file_url": "http://mw2.google.com/mw-panoramio/photos/medium/114795.jpg",
    "longitude": 7.706180,
    "latitude": 51.665741,
    "width": 334,
    "height": 500,
    "upload_date": "11 December 2006",
    "owner_id": 13121,
    "owner_name": "Andreas G.M.",
    "owner_url": "http://www.panoramio.com/user/13121"
  }, {
    "photo_id": 1287881,
    "photo_title": "Aurora borealis",
    "photo_url": "http://www.panoramio.com/photo/1287881",
    "photo_file_url": "http://mw2.google.com/mw-panoramio/photos/medium/1287881.jpg",
    "longitude": 44.215508,
    "latitude": 65.829148,
    "width": 500,
    "height": 205,
    "upload_date": "12 March 2007",
    "owner_id": 75359,
    "owner_name": "Andrey Larin",
    "owner_url": "http://www.panoramio.com/user/75359"
  }, {
    "photo_id": 1781717,
    "photo_title": "Water Cuts Rock",
    "photo_url": "http://www.panoramio.com/photo/1781717",
    "photo_file_url": "http://mw2.google.com/mw-panoramio/photos/medium/1781717.jpg",
    "longitude": -113.047771,
    "latitude": 37.312154,
    "width": 333,
    "height": 500,
    "upload_date": "15 April 2007",
    "owner_id": 376395,
    "owner_name": "JeffSullivan (www.MyPhotoGuides.com)",
    "owner_url": "http://www.panoramio.com/user/376395"
  }, {
    "photo_id": 196103,
    "photo_title": "albufera",
    "photo_url": "http://www.panoramio.com/photo/196103",
    "photo_file_url": "http://mw2.google.com/mw-panoramio/photos/medium/196103.jpg",
    "longitude": -0.323882,
    "latitude": 39.349166,
    "width": 332,
    "height": 500,
    "upload_date": "20 December 2006",
    "owner_id": 38804,
    "owner_name": "www.oscarsanchez.net",
    "owner_url": "http://www.panoramio.com/user/38804"
  }, {
    "photo_id": 266224,
    "photo_title": "Boulzojavri",
    "photo_url": "http://www.panoramio.com/photo/266224",
    "photo_file_url": "http://mw2.google.com/mw-panoramio/photos/medium/266224.jpg",
    "longitude": 24.373169,
    "latitude": 68.908534,
    "width": 500,
    "height": 334,
    "upload_date": "30 December 2006",
    "owner_id": 56091,
    "owner_name": "Kjetil Vaage Øie",
    "owner_url": "http://www.panoramio.com/user/56091"
  }, {
    "photo_id": 6126294,
    "photo_title": "Richmond Deer",
    "photo_url": "http://www.panoramio.com/photo/6126294",
    "photo_file_url": "http://mw2.google.com/mw-panoramio/photos/medium/6126294.jpg",
    "longitude": -0.275195,
    "latitude": 51.445890,
    "width": 489,
    "height": 500,
    "upload_date": "25 November 2007",
    "owner_id": 1130880,
    "owner_name": "marksimms",
    "owner_url": "http://www.panoramio.com/user/1130880"
  }, {
    "photo_id": 168032,
    "photo_title": "Buci Seine - Looking Up",
    "photo_url": "http://www.panoramio.com/photo/168032",
    "photo_file_url": "http://mw2.google.com/mw-panoramio/photos/medium/168032.jpg",
    "longitude": 2.336990,
    "latitude": 48.853891,
    "width": 500,
    "height": 357,
    "upload_date": "16 December 2006",
    "owner_id": 5684,
    "owner_name": "Brent Townshend",
    "owner_url": "http://www.panoramio.com/user/5684"
  }, {
    "photo_id": 1370932,
    "photo_title": "Mercury Bay Sunrise",
    "photo_url": "http://www.panoramio.com/photo/1370932",
    "photo_file_url": "http://mw2.google.com/mw-panoramio/photos/medium/1370932.jpg",
    "longitude": 175.699196,
    "latitude": -36.817685,
    "width": 500,
    "height": 470,
    "upload_date": "17 March 2007",
    "owner_id": 286729,
    "owner_name": "jimwitkowski",
    "owner_url": "http://www.panoramio.com/user/286729"
  }, {
    "photo_id": 120844,
    "photo_title": "Adelie-Prat- Kratzmaier",
    "photo_url": "http://www.panoramio.com/photo/120844",
    "photo_file_url": "http://mw2.google.com/mw-panoramio/photos/medium/120844.jpg",
    "longitude": -59.683228,
    "latitude": -62.485684,
    "width": 500,
    "height": 351,
    "upload_date": "12 December 2006",
    "owner_id": 19856,
    "owner_name": "Juan Kratzmaier",
    "owner_url": "http://www.panoramio.com/user/19856"
  }, {
    "photo_id": 940294,
    "photo_title": "Infrared Mediterranean Heat",
    "photo_url": "http://www.panoramio.com/photo/940294",
    "photo_file_url": "http://mw2.google.com/mw-panoramio/photos/medium/940294.jpg",
    "longitude": 25.376015,
    "latitude": 36.461537,
    "width": 500,
    "height": 332,
    "upload_date": "21 February 2007",
    "owner_id": 66847,
    "owner_name": "Lukas Novak",
    "owner_url": "http://www.panoramio.com/user/66847"
  }, {
    "photo_id": 4446084,
    "photo_title": "Vizivarázs",
    "photo_url": "http://www.panoramio.com/photo/4446084",
    "photo_file_url": "http://mw2.google.com/mw-panoramio/photos/medium/4446084.jpg",
    "longitude": 17.504482,
    "latitude": 47.842773,
    "width": 367,
    "height": 500,
    "upload_date": "06 September 2007",
    "owner_id": 109117,
    "owner_name": "Busa Péter",
    "owner_url": "http://www.panoramio.com/user/109117"
  }, {
    "photo_id": 498352,
    "photo_title": "Wave",
    "photo_url": "http://www.panoramio.com/photo/498352",
    "photo_file_url": "http://mw2.google.com/mw-panoramio/photos/medium/498352.jpg",
    "longitude": -112.005315,
    "latitude": 36.995972,
    "width": 500,
    "height": 333,
    "upload_date": "20 January 2007",
    "owner_id": 40260,
    "owner_name": "Don Albonico",
    "owner_url": "http://www.panoramio.com/user/40260"
  }, {
    "photo_id": 775893,
    "photo_title": "Leoparden",
    "photo_url": "http://www.panoramio.com/photo/775893",
    "photo_file_url": "http://mw2.google.com/mw-panoramio/photos/medium/775893.jpg",
    "longitude": 36.046829,
    "latitude": -3.818353,
    "width": 500,
    "height": 336,
    "upload_date": "11 February 2007",
    "owner_id": 164434,
    "owner_name": "Achim Mittler",
    "owner_url": "http://www.panoramio.com/user/164434"
  }, {
    "photo_id": 665502,
    "photo_title": "Sunset Beach Walker",
    "photo_url": "http://www.panoramio.com/photo/665502",
    "photo_file_url": "http://mw2.google.com/mw-panoramio/photos/medium/665502.jpg",
    "longitude": -124.077530,
    "latitude": 44.519888,
    "width": 500,
    "height": 340,
    "upload_date": "03 February 2007",
    "owner_id": 107359,
    "owner_name": "Ron Cooper",
    "owner_url": "http://www.panoramio.com/user/107359"
  }, {
    "photo_id": 9021415,
    "photo_title": "Wat  Suwan  Kuha  or  Wat  Tham, Phang Nga, Winner Unusual Location April 2008",
    "photo_url": "http://www.panoramio.com/photo/9021415",
    "photo_file_url": "http://mw2.google.com/mw-panoramio/photos/medium/9021415.jpg",
    "longitude": 98.471628,
    "latitude": 8.428840,
    "width": 500,
    "height": 334,
    "upload_date": "31 March 2008",
    "owner_id": 1077251,
    "owner_name": "picsonthemove",
    "owner_url": "http://www.panoramio.com/user/1077251"
  }, {
    "photo_id": 287244,
    "photo_title": "Landwasser-Viadukt - This is an unofficial photo point. Just follow the footpath up from the official one, until the clearing.",
    "photo_url": "http://www.panoramio.com/photo/287244",
    "photo_file_url": "http://mw2.google.com/mw-panoramio/photos/medium/287244.jpg",
    "longitude": 9.675007,
    "latitude": 46.681229,
    "width": 337,
    "height": 500,
    "upload_date": "03 January 2007",
    "owner_id": 57869,
    "owner_name": "NAGY Albert",
    "owner_url": "http://www.panoramio.com/user/57869"
  }, {
    "photo_id": 677366,
    "photo_title": "Oak tree in winter",
    "photo_url": "http://www.panoramio.com/photo/677366",
    "photo_file_url": "http://mw2.google.com/mw-panoramio/photos/medium/677366.jpg",
    "longitude": 10.771065,
    "latitude": 59.663926,
    "width": 358,
    "height": 500,
    "upload_date": "03 February 2007",
    "owner_id": 39160,
    "owner_name": "Snemann",
    "owner_url": "http://www.panoramio.com/user/39160"
  }, {
    "photo_id": 196086,
    "photo_title": "albufera",
    "photo_url": "http://www.panoramio.com/photo/196086",
    "photo_file_url": "http://mw2.google.com/mw-panoramio/photos/medium/196086.jpg",
    "longitude": -0.323882,
    "latitude": 39.349166,
    "width": 500,
    "height": 332,
    "upload_date": "20 December 2006",
    "owner_id": 38804,
    "owner_name": "www.oscarsanchez.net",
    "owner_url": "http://www.panoramio.com/user/38804"
  }, {
    "photo_id": 4340931,
    "photo_title": "Cold morning",
    "photo_url": "http://www.panoramio.com/photo/4340931",
    "photo_file_url": "http://mw2.google.com/mw-panoramio/photos/medium/4340931.jpg",
    "longitude": 12.113349,
    "latitude": 49.342559,
    "width": 500,
    "height": 333,
    "upload_date": "31 August 2007",
    "owner_id": 696605,
    "owner_name": "© alfredschaffer",
    "owner_url": "http://www.panoramio.com/user/696605"
  }, {
    "photo_id": 488,
    "photo_title": "Lagos de Montebello, México",
    "photo_url": "http://www.panoramio.com/photo/488",
    "photo_file_url": "http://mw2.google.com/mw-panoramio/photos/medium/488.jpg",
    "longitude": -91.677904,
    "latitude": 16.111297,
    "width": 500,
    "height": 345,
    "upload_date": "31 August 2005",
    "owner_id": 7,
    "owner_name": "Eduardo Manchón",
    "owner_url": "http://www.panoramio.com/user/7"
  }, {
    "photo_id": 723666,
    "photo_title": "Majestically Still",
    "photo_url": "http://www.panoramio.com/photo/723666",
    "photo_file_url": "http://mw2.google.com/mw-panoramio/photos/medium/723666.jpg",
    "longitude": -116.175613,
    "latitude": 51.327608,
    "width": 500,
    "height": 332,
    "upload_date": "07 February 2007",
    "owner_id": 66847,
    "owner_name": "Lukas Novak",
    "owner_url": "http://www.panoramio.com/user/66847"
  }, {
    "photo_id": 1081710,
    "photo_title": "Gjevilvatnet lake in Oppdal",
    "photo_url": "http://www.panoramio.com/photo/1081710",
    "photo_file_url": "http://mw2.google.com/mw-panoramio/photos/medium/1081710.jpg",
    "longitude": 9.412537,
    "latitude": 62.686749,
    "width": 500,
    "height": 333,
    "upload_date": "28 February 2007",
    "owner_id": 223406,
    "owner_name": "Sigmund Rise",
    "owner_url": "http://www.panoramio.com/user/223406"
  }, {
    "photo_id": 22575,
    "photo_title": "Lijiang River, near Yangshuo, China",
    "photo_url": "http://www.panoramio.com/photo/22575",
    "photo_file_url": "http://mw2.google.com/mw-panoramio/photos/medium/22575.jpg",
    "longitude": 110.454826,
    "latitude": 24.962716,
    "width": 500,
    "height": 333,
    "upload_date": "05 June 2006",
    "owner_id": 3557,
    "owner_name": "Placebo",
    "owner_url": "http://www.panoramio.com/user/3557"
  }, {
    "photo_id": 2735754,
    "photo_title": "Después de la lluvia",
    "photo_url": "http://www.panoramio.com/photo/2735754",
    "photo_file_url": "http://mw2.google.com/mw-panoramio/photos/medium/2735754.jpg",
    "longitude": -73.241998,
    "latitude": -39.809583,
    "width": 360,
    "height": 500,
    "upload_date": "13 June 2007",
    "owner_id": 327310,
    "owner_name": "Erwin Woenckhaus",
    "owner_url": "http://www.panoramio.com/user/327310"
  }, {
    "photo_id": 73515,
    "photo_title": "Kloster Höglwörth",
    "photo_url": "http://www.panoramio.com/photo/73515",
    "photo_file_url": "http://mw2.google.com/mw-panoramio/photos/medium/73515.jpg",
    "longitude": 12.850227,
    "latitude": 47.815575,
    "width": 500,
    "height": 333,
    "upload_date": "30 October 2006",
    "owner_id": 8060,
    "owner_name": "Norbert MAIER",
    "owner_url": "http://www.panoramio.com/user/8060"
  }, {
    "photo_id": 723015,
    "photo_title": "Cape Flattery (infrared)",
    "photo_url": "http://www.panoramio.com/photo/723015",
    "photo_file_url": "http://mw2.google.com/mw-panoramio/photos/medium/723015.jpg",
    "longitude": -124.726700,
    "latitude": 48.385898,
    "width": 500,
    "height": 332,
    "upload_date": "07 February 2007",
    "owner_id": 66847,
    "owner_name": "Lukas Novak",
    "owner_url": "http://www.panoramio.com/user/66847"
  }, {
    "photo_id": 1288595,
    "photo_title": "O'Keeffe ?",
    "photo_url": "http://www.panoramio.com/photo/1288595",
    "photo_file_url": "http://mw2.google.com/mw-panoramio/photos/medium/1288595.jpg",
    "longitude": 72.920637,
    "latitude": 4.038162,
    "width": 332,
    "height": 500,
    "upload_date": "12 March 2007",
    "owner_id": 232099,
    "owner_name": "mabut",
    "owner_url": "http://www.panoramio.com/user/232099"
  }, {
    "photo_id": 1008304,
    "photo_title": "nyhavn",
    "photo_url": "http://www.panoramio.com/photo/1008304",
    "photo_file_url": "http://mw2.google.com/mw-panoramio/photos/medium/1008304.jpg",
    "longitude": 12.591190,
    "latitude": 55.679762,
    "width": 500,
    "height": 333,
    "upload_date": "24 February 2007",
    "owner_id": 2659,
    "owner_name": "ozalph",
    "owner_url": "http://www.panoramio.com/user/2659"
  }, {
    "photo_id": 19547,
    "photo_title": "Embarcador 1",
    "photo_url": "http://www.panoramio.com/photo/19547",
    "photo_file_url": "http://mw2.google.com/mw-panoramio/photos/medium/19547.jpg",
    "longitude": 0.493140,
    "latitude": 40.904172,
    "width": 500,
    "height": 335,
    "upload_date": "07 May 2006",
    "owner_id": 3022,
    "owner_name": "Arcadi",
    "owner_url": "http://www.panoramio.com/user/3022"
  }, {
    "photo_id": 98115,
    "photo_title": "FREE-SPIRIT",
    "photo_url": "http://www.panoramio.com/photo/98115",
    "photo_file_url": "http://mw2.google.com/mw-panoramio/photos/medium/98115.jpg",
    "longitude": 9.908917,
    "latitude": 50.487112,
    "width": 500,
    "height": 304,
    "upload_date": "10 December 2006",
    "owner_id": 13121,
    "owner_name": "Andreas G.M.",
    "owner_url": "http://www.panoramio.com/user/13121"
  }, {
    "photo_id": 9822056,
    "photo_title": "Reflection under the Bridge",
    "photo_url": "http://www.panoramio.com/photo/9822056",
    "photo_file_url": "http://mw2.google.com/mw-panoramio/photos/medium/9822056.jpg",
    "longitude": 103.853851,
    "latitude": 1.286973,
    "width": 333,
    "height": 500,
    "upload_date": "01 May 2008",
    "owner_id": 1465912,
    "owner_name": "funtor",
    "owner_url": "http://www.panoramio.com/user/1465912"
  }, {
    "photo_id": 9117094,
    "photo_title": "Baron's Haugh, Scotland",
    "photo_url": "http://www.panoramio.com/photo/9117094",
    "photo_file_url": "http://mw2.google.com/mw-panoramio/photos/medium/9117094.jpg",
    "longitude": -3.986835,
    "latitude": 55.773532,
    "width": 500,
    "height": 337,
    "upload_date": "05 April 2008",
    "owner_id": 165346,
    "owner_name": "Alan Knox",
    "owner_url": "http://www.panoramio.com/user/165346"
  }, {
    "photo_id": 5342534,
    "photo_title": "Őszi pompa",
    "photo_url": "http://www.panoramio.com/photo/5342534",
    "photo_file_url": "http://mw2.google.com/mw-panoramio/photos/medium/5342534.jpg",
    "longitude": 15.964594,
    "latitude": 47.875426,
    "width": 500,
    "height": 334,
    "upload_date": "16 October 2007",
    "owner_id": 109117,
    "owner_name": "Busa Péter",
    "owner_url": "http://www.panoramio.com/user/109117"
  }, {
    "photo_id": 2346129,
    "photo_title": "Pipacsálom",
    "photo_url": "http://www.panoramio.com/photo/2346129",
    "photo_file_url": "http://mw2.google.com/mw-panoramio/photos/medium/2346129.jpg",
    "longitude": 17.521820,
    "latitude": 47.748558,
    "width": 500,
    "height": 378,
    "upload_date": "22 May 2007",
    "owner_id": 109117,
    "owner_name": "Busa Péter",
    "owner_url": "http://www.panoramio.com/user/109117"
  }, {
    "photo_id": 3749005,
    "photo_title": "Once in a Blue Moon....",
    "photo_url": "http://www.panoramio.com/photo/3749005",
    "photo_file_url": "http://mw2.google.com/mw-panoramio/photos/medium/3749005.jpg",
    "longitude": -105.654080,
    "latitude": 40.294560,
    "width": 374,
    "height": 500,
    "upload_date": "05 August 2007",
    "owner_id": 87752,
    "owner_name": "Richard Ryer",
    "owner_url": "http://www.panoramio.com/user/87752"
  }, {
    "photo_id": 1360629,
    "photo_title": "Frente a la Cascada de Gujuli -103 m.-",
    "photo_url": "http://www.panoramio.com/photo/1360629",
    "photo_file_url": "http://mw2.google.com/mw-panoramio/photos/medium/1360629.jpg",
    "longitude": -2.909800,
    "latitude": 42.976199,
    "width": 333,
    "height": 500,
    "upload_date": "17 March 2007",
    "owner_id": 129297,
    "owner_name": "Enrique Ortiz de Zárate",
    "owner_url": "http://www.panoramio.com/user/129297"
  }, {
    "photo_id": 6129915,
    "photo_title": "A vadon szava",
    "photo_url": "http://www.panoramio.com/photo/6129915",
    "photo_file_url": "http://mw2.google.com/mw-panoramio/photos/medium/6129915.jpg",
    "longitude": 17.521133,
    "latitude": 47.854408,
    "width": 500,
    "height": 325,
    "upload_date": "25 November 2007",
    "owner_id": 109117,
    "owner_name": "Busa Péter",
    "owner_url": "http://www.panoramio.com/user/109117"
  }, {
    "photo_id": 67183,
    "photo_title": "Laguna verde e Vulcano Licancabur",
    "photo_url": "http://www.panoramio.com/photo/67183",
    "photo_file_url": "http://mw2.google.com/mw-panoramio/photos/medium/67183.jpg",
    "longitude": -67.819161,
    "latitude": -22.787696,
    "width": 500,
    "height": 370,
    "upload_date": "20 October 2006",
    "owner_id": 9080,
    "owner_name": "Marco Teodonio",
    "owner_url": "http://www.panoramio.com/user/9080"
  }, {
    "photo_id": 507571,
    "photo_title": "Mikor a harangszó is szebben hallik",
    "photo_url": "http://www.panoramio.com/photo/507571",
    "photo_file_url": "http://mw2.google.com/mw-panoramio/photos/medium/507571.jpg",
    "longitude": 17.684383,
    "latitude": 47.587873,
    "width": 396,
    "height": 500,
    "upload_date": "20 January 2007",
    "owner_id": 109117,
    "owner_name": "Busa Péter",
    "owner_url": "http://www.panoramio.com/user/109117"
  }, {
    "photo_id": 6685422,
    "photo_title": "Dawn at Bagan, Myanmar (Burma)",
    "photo_url": "http://www.panoramio.com/photo/6685422",
    "photo_file_url": "http://mw2.google.com/mw-panoramio/photos/medium/6685422.jpg",
    "longitude": 94.860935,
    "latitude": 21.169045,
    "width": 500,
    "height": 333,
    "upload_date": "25 December 2007",
    "owner_id": 1221287,
    "owner_name": "TS Jeung",
    "owner_url": "http://www.panoramio.com/user/1221287"
  }, {
    "photo_id": 3513121,
    "photo_title": "Báláim",
    "photo_url": "http://www.panoramio.com/photo/3513121",
    "photo_file_url": "http://mw2.google.com/mw-panoramio/photos/medium/3513121.jpg",
    "longitude": 17.481651,
    "latitude": 47.457576,
    "width": 419,
    "height": 500,
    "upload_date": "24 July 2007",
    "owner_id": 689769,
    "owner_name": "Ponty István",
    "owner_url": "http://www.panoramio.com/user/689769"
  }, {
    "photo_id": 10574161,
    "photo_title": "Silhouette",
    "photo_url": "http://www.panoramio.com/photo/10574161",
    "photo_file_url": "http://mw2.google.com/mw-panoramio/photos/medium/10574161.jpg",
    "longitude": 148.662905,
    "latitude": -35.304724,
    "width": 500,
    "height": 346,
    "upload_date": "25 May 2008",
    "owner_id": 766550,
    "owner_name": "VFedele",
    "owner_url": "http://www.panoramio.com/user/766550"
  }, {
    "photo_id": 89190,
    "photo_title": "Mount Ararat, Yerevan, Armenia",
    "photo_url": "http://www.panoramio.com/photo/89190",
    "photo_file_url": "http://mw2.google.com/mw-panoramio/photos/medium/89190.jpg",
    "longitude": 44.483900,
    "latitude": 40.195299,
    "width": 500,
    "height": 375,
    "upload_date": "30 November 2006",
    "owner_id": 11226,
    "owner_name": "Ardani",
    "owner_url": "http://www.panoramio.com/user/11226"
  }, {
    "photo_id": 1182305,
    "photo_title": "Dobel, Albrecht-Hütte",
    "photo_url": "http://www.panoramio.com/photo/1182305",
    "photo_file_url": "http://mw2.google.com/mw-panoramio/photos/medium/1182305.jpg",
    "longitude": 8.500500,
    "latitude": 48.793465,
    "width": 500,
    "height": 375,
    "upload_date": "05 March 2007",
    "owner_id": 66229,
    "owner_name": "Mast",
    "owner_url": "http://www.panoramio.com/user/66229"
  }, {
    "photo_id": 4258015,
    "photo_title": "Fényözön",
    "photo_url": "http://www.panoramio.com/photo/4258015",
    "photo_file_url": "http://mw2.google.com/mw-panoramio/photos/medium/4258015.jpg",
    "longitude": 16.391602,
    "latitude": 46.851269,
    "width": 333,
    "height": 500,
    "upload_date": "28 August 2007",
    "owner_id": 109117,
    "owner_name": "Busa Péter",
    "owner_url": "http://www.panoramio.com/user/109117"
  }, {
    "photo_id": 1413,
    "photo_title": "Champlain Lookout",
    "photo_url": "http://www.panoramio.com/photo/1413",
    "photo_file_url": "http://mw2.google.com/mw-panoramio/photos/medium/1413.jpg",
    "longitude": -75.912872,
    "latitude": 45.507640,
    "width": 500,
    "height": 375,
    "upload_date": "06 October 2005",
    "owner_id": 273,
    "owner_name": "JC",
    "owner_url": "http://www.panoramio.com/user/273"
  }, {
    "photo_id": 1526763,
    "photo_title": "Gizeh Pyramids, Cairo",
    "photo_url": "http://www.panoramio.com/photo/1526763",
    "photo_file_url": "http://mw2.google.com/mw-panoramio/photos/medium/1526763.jpg",
    "longitude": 31.133537,
    "latitude": 29.966721,
    "width": 500,
    "height": 333,
    "upload_date": "27 March 2007",
    "owner_id": 59919,
    "owner_name": "xflo:w (http://www.xflo.net)",
    "owner_url": "http://www.panoramio.com/user/59919"
  }, {
    "photo_id": 8802900,
    "photo_title": "Martigues, miroir aux oiseaux",
    "photo_url": "http://www.panoramio.com/photo/8802900",
    "photo_file_url": "http://mw2.google.com/mw-panoramio/photos/medium/8802900.jpg",
    "longitude": 5.054559,
    "latitude": 43.405079,
    "width": 387,
    "height": 500,
    "upload_date": "24 March 2008",
    "owner_id": 629243,
    "owner_name": "Olivier Faugeras",
    "owner_url": "http://www.panoramio.com/user/629243"
  }, {
    "photo_id": 459515,
    "photo_title": "fire works",
    "photo_url": "http://www.panoramio.com/photo/459515",
    "photo_file_url": "http://mw2.google.com/mw-panoramio/photos/medium/459515.jpg",
    "longitude": 138.423271,
    "latitude": 38.069312,
    "width": 500,
    "height": 385,
    "upload_date": "16 January 2007",
    "owner_id": 86411,
    "owner_name": "中村脩-Osamu nakamura",
    "owner_url": "http://www.panoramio.com/user/86411"
  }, {
    "photo_id": 749464,
    "photo_title": "Gondola",
    "photo_url": "http://www.panoramio.com/photo/749464",
    "photo_file_url": "http://mw2.google.com/mw-panoramio/photos/medium/749464.jpg",
    "longitude": 12.336917,
    "latitude": 45.434053,
    "width": 500,
    "height": 332,
    "upload_date": "09 February 2007",
    "owner_id": 159455,
    "owner_name": "©Franco Truscello",
    "owner_url": "http://www.panoramio.com/user/159455"
  }, {
    "photo_id": 422608,
    "photo_title": "tanada",
    "photo_url": "http://www.panoramio.com/photo/422608",
    "photo_file_url": "http://mw2.google.com/mw-panoramio/photos/medium/422608.jpg",
    "longitude": 139.047089,
    "latitude": 37.449787,
    "width": 383,
    "height": 500,
    "upload_date": "14 January 2007",
    "owner_id": 86411,
    "owner_name": "中村脩-Osamu nakamura",
    "owner_url": "http://www.panoramio.com/user/86411"
  }, {
    "photo_id": 85617,
    "photo_title": "Parque Natural de Calblanque",
    "photo_url": "http://www.panoramio.com/photo/85617",
    "photo_file_url": "http://mw2.google.com/mw-panoramio/photos/medium/85617.jpg",
    "longitude": -0.739861,
    "latitude": 37.594104,
    "width": 332,
    "height": 500,
    "upload_date": "24 November 2006",
    "owner_id": 10969,
    "owner_name": "Juanra",
    "owner_url": "http://www.panoramio.com/user/10969"
  }, {
    "photo_id": 1089235,
    "photo_title": "Nyáridéző",
    "photo_url": "http://www.panoramio.com/photo/1089235",
    "photo_file_url": "http://mw2.google.com/mw-panoramio/photos/medium/1089235.jpg",
    "longitude": 18.207092,
    "latitude": 47.318578,
    "width": 500,
    "height": 282,
    "upload_date": "28 February 2007",
    "owner_id": 109117,
    "owner_name": "Busa Péter",
    "owner_url": "http://www.panoramio.com/user/109117"
  }, {
    "photo_id": 505229,
    "photo_title": "Etangs près de Dijon",
    "photo_url": "http://www.panoramio.com/photo/505229",
    "photo_file_url": "http://mw2.google.com/mw-panoramio/photos/medium/505229.jpg",
    "longitude": 5.168552,
    "latitude": 47.312642,
    "width": 350,
    "height": 500,
    "upload_date": "20 January 2007",
    "owner_id": 78506,
    "owner_name": "Philippe Stoop",
    "owner_url": "http://www.panoramio.com/user/78506"
  }, {
    "photo_id": 679343,
    "photo_title": "melbourne sunset over the yarra river",
    "photo_url": "http://www.panoramio.com/photo/679343",
    "photo_file_url": "http://mw2.google.com/mw-panoramio/photos/medium/679343.jpg",
    "longitude": 144.968119,
    "latitude": -37.819616,
    "width": 500,
    "height": 500,
    "upload_date": "04 February 2007",
    "owner_id": 146092,
    "owner_name": "sid1662",
    "owner_url": "http://www.panoramio.com/user/146092"
  }, {
    "photo_id": 436336,
    "photo_title": "myoujyousan",
    "photo_url": "http://www.panoramio.com/photo/436336",
    "photo_file_url": "http://mw2.google.com/mw-panoramio/photos/medium/436336.jpg",
    "longitude": 137.831554,
    "latitude": 36.911608,
    "width": 500,
    "height": 362,
    "upload_date": "15 January 2007",
    "owner_id": 86411,
    "owner_name": "中村脩-Osamu nakamura",
    "owner_url": "http://www.panoramio.com/user/86411"
  }, {
    "photo_id": 9733680,
    "photo_title": "Sydney",
    "photo_url": "http://www.panoramio.com/photo/9733680",
    "photo_file_url": "http://mw2.google.com/mw-panoramio/photos/medium/9733680.jpg",
    "longitude": 151.209834,
    "latitude": -33.848588,
    "width": 333,
    "height": 500,
    "upload_date": "28 April 2008",
    "owner_id": 1465912,
    "owner_name": "funtor",
    "owner_url": "http://www.panoramio.com/user/1465912"
  }, {
    "photo_id": 7415625,
    "photo_title": "Në fushë të Pallaticesë",
    "photo_url": "http://www.panoramio.com/photo/7415625",
    "photo_file_url": "http://mw2.google.com/mw-panoramio/photos/medium/7415625.jpg",
    "longitude": 21.077271,
    "latitude": 42.011550,
    "width": 437,
    "height": 500,
    "upload_date": "28 January 2008",
    "owner_id": 695042,
    "owner_name": "Neim Sejfuli ♦",
    "owner_url": "http://www.panoramio.com/user/695042"
  }, {
    "photo_id": 5358174,
    "photo_title": "Morning Glory",
    "photo_url": "http://www.panoramio.com/photo/5358174",
    "photo_file_url": "http://mw2.google.com/mw-panoramio/photos/medium/5358174.jpg",
    "longitude": -110.843537,
    "latitude": 44.475020,
    "width": 500,
    "height": 348,
    "upload_date": "16 October 2007",
    "owner_id": 66847,
    "owner_name": "Lukas Novak",
    "owner_url": "http://www.panoramio.com/user/66847"
  }, {
    "photo_id": 316199,
    "photo_title": "A lake on Gasherbrum glacier",
    "photo_url": "http://www.panoramio.com/photo/316199",
    "photo_file_url": "http://mw2.google.com/mw-panoramio/photos/medium/316199.jpg",
    "longitude": 76.732550,
    "latitude": 35.877298,
    "width": 500,
    "height": 375,
    "upload_date": "06 January 2007",
    "owner_id": 65672,
    "owner_name": "www.turclubmai.ru",
    "owner_url": "http://www.panoramio.com/user/65672"
  }, {
    "photo_id": 400536,
    "photo_title": "Half Dome Mtn, Yosemite Nat Park,  CA",
    "photo_url": "http://www.panoramio.com/photo/400536",
    "photo_file_url": "http://mw2.google.com/mw-panoramio/photos/medium/400536.jpg",
    "longitude": -119.495888,
    "latitude": 37.811411,
    "width": 500,
    "height": 333,
    "upload_date": "12 January 2007",
    "owner_id": 85489,
    "owner_name": "Bruce MacIver",
    "owner_url": "http://www.panoramio.com/user/85489"
  }, {
    "photo_id": 2942693,
    "photo_title": "Tulips and Windmills",
    "photo_url": "http://www.panoramio.com/photo/2942693",
    "photo_file_url": "http://mw2.google.com/mw-panoramio/photos/medium/2942693.jpg",
    "longitude": 4.864798,
    "latitude": 52.594393,
    "width": 500,
    "height": 500,
    "upload_date": "25 June 2007",
    "owner_id": 588149,
    "owner_name": "Adam Salwanowicz",
    "owner_url": "http://www.panoramio.com/user/588149"
  }, {
    "photo_id": 9733633,
    "photo_title": "Oper-Sydney",
    "photo_url": "http://www.panoramio.com/photo/9733633",
    "photo_file_url": "http://mw2.google.com/mw-panoramio/photos/medium/9733633.jpg",
    "longitude": 151.216968,
    "latitude": -33.851702,
    "width": 500,
    "height": 333,
    "upload_date": "28 April 2008",
    "owner_id": 1465912,
    "owner_name": "funtor",
    "owner_url": "http://www.panoramio.com/user/1465912"
  }, {
    "photo_id": 1800454,
    "photo_title": "Bombay Beach, Salton Sea, CA",
    "photo_url": "http://www.panoramio.com/photo/1800454",
    "photo_file_url": "http://mw2.google.com/mw-panoramio/photos/medium/1800454.jpg",
    "longitude": -115.729235,
    "latitude": 33.347316,
    "width": 500,
    "height": 407,
    "upload_date": "16 April 2007",
    "owner_id": 107613,
    "owner_name": "Tom Grubbe",
    "owner_url": "http://www.panoramio.com/user/107613"
  }, {
    "photo_id": 2558057,
    "photo_title": "Kin-dza-dza 2",
    "photo_url": "http://www.panoramio.com/photo/2558057",
    "photo_file_url": "http://mw2.google.com/mw-panoramio/photos/medium/2558057.jpg",
    "longitude": 30.785751,
    "latitude": 46.639301,
    "width": 500,
    "height": 375,
    "upload_date": "03 June 2007",
    "owner_id": 13058,
    "owner_name": "Kyryl",
    "owner_url": "http://www.panoramio.com/user/13058"
  }, {
    "photo_id": 7768089,
    "photo_title": "Isteni színjáték",
    "photo_url": "http://www.panoramio.com/photo/7768089",
    "photo_file_url": "http://mw2.google.com/mw-panoramio/photos/medium/7768089.jpg",
    "longitude": 17.507057,
    "latitude": 47.776425,
    "width": 500,
    "height": 334,
    "upload_date": "12 February 2008",
    "owner_id": 109117,
    "owner_name": "Busa Péter",
    "owner_url": "http://www.panoramio.com/user/109117"
  }, {
    "photo_id": 1213006,
    "photo_title": "Twilight Drive",
    "photo_url": "http://www.panoramio.com/photo/1213006",
    "photo_file_url": "http://mw2.google.com/mw-panoramio/photos/medium/1213006.jpg",
    "longitude": -114.481916,
    "latitude": 51.095841,
    "width": 500,
    "height": 335,
    "upload_date": "07 March 2007",
    "owner_id": 66847,
    "owner_name": "Lukas Novak",
    "owner_url": "http://www.panoramio.com/user/66847"
  }, {
    "photo_id": 395800,
    "photo_title": "Pic de Bure depuis le Pic de Gleize",
    "photo_url": "http://www.panoramio.com/photo/395800",
    "photo_file_url": "http://mw2.google.com/mw-panoramio/photos/medium/395800.jpg",
    "longitude": 6.055870,
    "latitude": 44.610146,
    "width": 500,
    "height": 350,
    "upload_date": "12 January 2007",
    "owner_id": 78506,
    "owner_name": "Philippe Stoop",
    "owner_url": "http://www.panoramio.com/user/78506"
  }, {
    "photo_id": 11073609,
    "photo_title": "Sunrise in Koroni, by Kostas Andreopoulos",
    "photo_url": "http://www.panoramio.com/photo/11073609",
    "photo_file_url": "http://mw2.google.com/mw-panoramio/photos/medium/11073609.jpg",
    "longitude": 21.952747,
    "latitude": 36.797775,
    "width": 500,
    "height": 375,
    "upload_date": "09 June 2008",
    "owner_id": 1690483,
    "owner_name": "k.andre",
    "owner_url": "http://www.panoramio.com/user/1690483"
  }, {
    "photo_id": 6564418,
    "photo_title": "Baron's Haugh, Scotland",
    "photo_url": "http://www.panoramio.com/photo/6564418",
    "photo_file_url": "http://mw2.google.com/mw-panoramio/photos/medium/6564418.jpg",
    "longitude": -3.989239,
    "latitude": 55.772808,
    "width": 500,
    "height": 337,
    "upload_date": "19 December 2007",
    "owner_id": 165346,
    "owner_name": "Alan Knox",
    "owner_url": "http://www.panoramio.com/user/165346"
  }, {
    "photo_id": 10158925,
    "photo_title": "Lluvia púrpura ( Purple rain )",
    "photo_url": "http://www.panoramio.com/photo/10158925",
    "photo_file_url": "http://mw2.google.com/mw-panoramio/photos/medium/10158925.jpg",
    "longitude": -0.476360,
    "latitude": 39.612565,
    "width": 500,
    "height": 333,
    "upload_date": "12 May 2008",
    "owner_id": 787217,
    "owner_name": "♣ Víctor S de Lara ♣",
    "owner_url": "http://www.panoramio.com/user/787217"
  }, {
    "photo_id": 121574,
    "photo_title": "Moscú/Moscow - Catedral de San Basilio",
    "photo_url": "http://www.panoramio.com/photo/121574",
    "photo_file_url": "http://mw2.google.com/mw-panoramio/photos/medium/121574.jpg",
    "longitude": 37.621951,
    "latitude": 55.753033,
    "width": 500,
    "height": 375,
    "upload_date": "12 December 2006",
    "owner_id": 17212,
    "owner_name": "javier herranz",
    "owner_url": "http://www.panoramio.com/user/17212"
  }, {
    "photo_id": 6012915,
    "photo_title": "Erleuchtung in Venedig",
    "photo_url": "http://www.panoramio.com/photo/6012915",
    "photo_file_url": "http://mw2.google.com/mw-panoramio/photos/medium/6012915.jpg",
    "longitude": 12.340747,
    "latitude": 45.433364,
    "width": 500,
    "height": 333,
    "upload_date": "19 November 2007",
    "owner_id": 8060,
    "owner_name": "Norbert MAIER",
    "owner_url": "http://www.panoramio.com/user/8060"
  }, {
    "photo_id": 346687,
    "photo_title": "namibia desert",
    "photo_url": "http://www.panoramio.com/photo/346687",
    "photo_file_url": "http://mw2.google.com/mw-panoramio/photos/medium/346687.jpg",
    "longitude": 15.408325,
    "latitude": -24.729370,
    "width": 500,
    "height": 334,
    "upload_date": "08 January 2007",
    "owner_id": 69671,
    "owner_name": "illusandpics.com",
    "owner_url": "http://www.panoramio.com/user/69671"
  }, {
    "photo_id": 1913758,
    "photo_title": "Cortona - Via Gino Severini",
    "photo_url": "http://www.panoramio.com/photo/1913758",
    "photo_file_url": "http://mw2.google.com/mw-panoramio/photos/medium/1913758.jpg",
    "longitude": 11.988916,
    "latitude": 43.273659,
    "width": 500,
    "height": 498,
    "upload_date": "24 April 2007",
    "owner_id": 193913,
    "owner_name": "Klesitz Piroska",
    "owner_url": "http://www.panoramio.com/user/193913"
  }, {
    "photo_id": 405843,
    "photo_title": "siroiwa",
    "photo_url": "http://www.panoramio.com/photo/405843",
    "photo_file_url": "http://mw2.google.com/mw-panoramio/photos/medium/405843.jpg",
    "longitude": 138.789682,
    "latitude": 37.726398,
    "width": 500,
    "height": 338,
    "upload_date": "13 January 2007",
    "owner_id": 86411,
    "owner_name": "中村脩-Osamu nakamura",
    "owner_url": "http://www.panoramio.com/user/86411"
  }, {
    "photo_id": 91375,
    "photo_title": "Burj Al Arab At Night",
    "photo_url": "http://www.panoramio.com/photo/91375",
    "photo_file_url": "http://mw2.google.com/mw-panoramio/photos/medium/91375.jpg",
    "longitude": 55.187416,
    "latitude": 25.140312,
    "width": 255,
    "height": 500,
    "upload_date": "03 December 2006",
    "owner_id": 1295,
    "owner_name": "Matthew Walters",
    "owner_url": "http://www.panoramio.com/user/1295"
  }, {
    "photo_id": 940792,
    "photo_title": "Moraine Branch",
    "photo_url": "http://www.panoramio.com/photo/940792",
    "photo_file_url": "http://mw2.google.com/mw-panoramio/photos/medium/940792.jpg",
    "longitude": -116.177502,
    "latitude": 51.325946,
    "width": 500,
    "height": 332,
    "upload_date": "21 February 2007",
    "owner_id": 66847,
    "owner_name": "Lukas Novak",
    "owner_url": "http://www.panoramio.com/user/66847"
  }, {
    "photo_id": 58287,
    "photo_title": "Schloß Anif",
    "photo_url": "http://www.panoramio.com/photo/58287",
    "photo_file_url": "http://mw2.google.com/mw-panoramio/photos/medium/58287.jpg",
    "longitude": 13.068817,
    "latitude": 47.744540,
    "width": 500,
    "height": 333,
    "upload_date": "07 October 2006",
    "owner_id": 8060,
    "owner_name": "Norbert MAIER",
    "owner_url": "http://www.panoramio.com/user/8060"
  }, {
    "photo_id": 194118,
    "photo_title": "Mount Fuji: Fuji-San",
    "photo_url": "http://www.panoramio.com/photo/194118",
    "photo_file_url": "http://mw2.google.com/mw-panoramio/photos/medium/194118.jpg",
    "longitude": 138.727455,
    "latitude": 35.377294,
    "width": 500,
    "height": 332,
    "upload_date": "20 December 2006",
    "owner_id": 27882,
    "owner_name": "taoy",
    "owner_url": "http://www.panoramio.com/user/27882"
  }, {
    "photo_id": 5158892,
    "photo_title": "prati di Tires Alto Adige Südtirol south tyrol",
    "photo_url": "http://www.panoramio.com/photo/5158892",
    "photo_file_url": "http://mw2.google.com/mw-panoramio/photos/medium/5158892.jpg",
    "longitude": 11.557188,
    "latitude": 46.471044,
    "width": 500,
    "height": 429,
    "upload_date": "08 October 2007",
    "owner_id": 578163,
    "owner_name": "Margherita-Italy",
    "owner_url": "http://www.panoramio.com/user/578163"
  }, {
    "photo_id": 280123,
    "photo_title": "kaouki05",
    "photo_url": "http://www.panoramio.com/photo/280123",
    "photo_file_url": "http://mw2.google.com/mw-panoramio/photos/medium/280123.jpg",
    "longitude": -9.799418,
    "latitude": 31.355662,
    "width": 328,
    "height": 500,
    "upload_date": "01 January 2007",
    "owner_id": 58867,
    "owner_name": "Lachaud Franck",
    "owner_url": "http://www.panoramio.com/user/58867"
  }, {
    "photo_id": 6789223,
    "photo_title": "Exploding sky",
    "photo_url": "http://www.panoramio.com/photo/6789223",
    "photo_file_url": "http://mw2.google.com/mw-panoramio/photos/medium/6789223.jpg",
    "longitude": -69.930505,
    "latitude": 12.522579,
    "width": 500,
    "height": 333,
    "upload_date": "30 December 2007",
    "owner_id": 89499,
    "owner_name": "Michael Braxenthaler",
    "owner_url": "http://www.panoramio.com/user/89499"
  }, {
    "photo_id": 3722547,
    "photo_title": "Morning fog in the Alps",
    "photo_url": "http://www.panoramio.com/photo/3722547",
    "photo_file_url": "http://mw2.google.com/mw-panoramio/photos/medium/3722547.jpg",
    "longitude": 10.591164,
    "latitude": 47.521142,
    "width": 500,
    "height": 333,
    "upload_date": "04 August 2007",
    "owner_id": 89499,
    "owner_name": "Michael Braxenthaler",
    "owner_url": "http://www.panoramio.com/user/89499"
  }, {
    "photo_id": 9530458,
    "photo_title": "Castillian cereal fields from Atienza walls",
    "photo_url": "http://www.panoramio.com/photo/9530458",
    "photo_file_url": "http://mw2.google.com/mw-panoramio/photos/medium/9530458.jpg",
    "longitude": -2.874470,
    "latitude": 41.198451,
    "width": 500,
    "height": 470,
    "upload_date": "20 April 2008",
    "owner_id": 134279,
    "owner_name": "4ullas",
    "owner_url": "http://www.panoramio.com/user/134279"
  }, {
    "photo_id": 2935974,
    "photo_title": "Atardecer tras el Anboto desde el Aitzgorri",
    "photo_url": "http://www.panoramio.com/photo/2935974",
    "photo_file_url": "http://mw2.google.com/mw-panoramio/photos/medium/2935974.jpg",
    "longitude": -2.324982,
    "latitude": 42.951240,
    "width": 500,
    "height": 331,
    "upload_date": "25 June 2007",
    "owner_id": 129297,
    "owner_name": "Enrique Ortiz de Zárate",
    "owner_url": "http://www.panoramio.com/user/129297"
  }, {
    "photo_id": 38587,
    "photo_title": "Blitz",
    "photo_url": "http://www.panoramio.com/photo/38587",
    "photo_file_url": "http://mw2.google.com/mw-panoramio/photos/medium/38587.jpg",
    "longitude": 7.949853,
    "latitude": 48.489947,
    "width": 500,
    "height": 375,
    "upload_date": "13 August 2006",
    "owner_id": 6002,
    "owner_name": "Paul Feiler",
    "owner_url": "http://www.panoramio.com/user/6002"
  }, {
    "photo_id": 9312247,
    "photo_title": "Idrija - High water after rain",
    "photo_url": "http://www.panoramio.com/photo/9312247",
    "photo_file_url": "http://mw2.google.com/mw-panoramio/photos/medium/9312247.jpg",
    "longitude": 13.965683,
    "latitude": 45.955625,
    "width": 500,
    "height": 375,
    "upload_date": "12 April 2008",
    "owner_id": 763995,
    "owner_name": "Samo T.",
    "owner_url": "http://www.panoramio.com/user/763995"
  }, {
    "photo_id": 110409,
    "photo_title": "Laguna de Yanganuco",
    "photo_url": "http://www.panoramio.com/photo/110409",
    "photo_file_url": "http://mw2.google.com/mw-panoramio/photos/medium/110409.jpg",
    "longitude": -77.640553,
    "latitude": -9.071585,
    "width": 330,
    "height": 500,
    "upload_date": "11 December 2006",
    "owner_id": 16323,
    "owner_name": "Luis Torres",
    "owner_url": "http://www.panoramio.com/user/16323"
  }, {
    "photo_id": 7609439,
    "photo_title": "Fényfürdő",
    "photo_url": "http://www.panoramio.com/photo/7609439",
    "photo_file_url": "http://mw2.google.com/mw-panoramio/photos/medium/7609439.jpg",
    "longitude": 15.965366,
    "latitude": 47.877556,
    "width": 500,
    "height": 312,
    "upload_date": "05 February 2008",
    "owner_id": 109117,
    "owner_name": "Busa Péter",
    "owner_url": "http://www.panoramio.com/user/109117"
  }, {
    "photo_id": 8599453,
    "photo_title": "Realidad comprimida",
    "photo_url": "http://www.panoramio.com/photo/8599453",
    "photo_file_url": "http://mw2.google.com/mw-panoramio/photos/medium/8599453.jpg",
    "longitude": -2.780957,
    "latitude": 43.033953,
    "width": 500,
    "height": 387,
    "upload_date": "17 March 2008",
    "owner_id": 129297,
    "owner_name": "Enrique Ortiz de Zárate",
    "owner_url": "http://www.panoramio.com/user/129297"
  }, {
    "photo_id": 233921,
    "photo_title": "Mount Titlis,  Engelberg,  Switzerland  www.titlis.ch  /  www.engelberg.ch/ www.berghuette.ch /www.brunnihuette.ch",
    "photo_url": "http://www.panoramio.com/photo/233921",
    "photo_file_url": "http://mw2.google.com/mw-panoramio/photos/medium/233921.jpg",
    "longitude": 8.410742,
    "latitude": 46.841583,
    "width": 500,
    "height": 375,
    "upload_date": "25 December 2006",
    "owner_id": 47930,
    "owner_name": "werni",
    "owner_url": "http://www.panoramio.com/user/47930"
  }, {
    "photo_id": 561386,
    "photo_title": "the country",
    "photo_url": "http://www.panoramio.com/photo/561386",
    "photo_file_url": "http://mw2.google.com/mw-panoramio/photos/medium/561386.jpg",
    "longitude": 138.871393,
    "latitude": 37.602196,
    "width": 500,
    "height": 383,
    "upload_date": "24 January 2007",
    "owner_id": 86411,
    "owner_name": "中村脩-Osamu nakamura",
    "owner_url": "http://www.panoramio.com/user/86411"
  }, {
    "photo_id": 1195112,
    "photo_title": "Tolar Grande",
    "photo_url": "http://www.panoramio.com/photo/1195112",
    "photo_file_url": "http://mw2.google.com/mw-panoramio/photos/medium/1195112.jpg",
    "longitude": -67.361984,
    "latitude": -24.545249,
    "width": 500,
    "height": 342,
    "upload_date": "06 March 2007",
    "owner_id": 232099,
    "owner_name": "mabut",
    "owner_url": "http://www.panoramio.com/user/232099"
  }, {
    "photo_id": 5466129,
    "photo_title": "\"Lasciate ogne speranza, voi ch’intrate\". (\"Abandon all hope, ye who enter here\" ; \"Toi qui entre ici, abandonne toute espérance\".) Dante e il primo girone dell'Inferno (o Virgilio nella selva oscura, accanto all'ingresso dell'Inferno) (ou encore, plus prosaïquement, pêche dans le Jaunay en Vendée, le 21 octobre 2007 à l'aube d'un très froid matin d'automne). #129",
    "photo_url": "http://www.panoramio.com/photo/5466129",
    "photo_file_url": "http://mw2.google.com/mw-panoramio/photos/medium/5466129.jpg",
    "longitude": -1.901300,
    "latitude": 46.663398,
    "width": 500,
    "height": 281,
    "upload_date": "22 October 2007",
    "owner_id": 666755,
    "owner_name": "Armagnac",
    "owner_url": "http://www.panoramio.com/user/666755"
  }, {
    "photo_id": 57820,
    "photo_title": "Hallstatt 2",
    "photo_url": "http://www.panoramio.com/photo/57820",
    "photo_file_url": "http://mw2.google.com/mw-panoramio/photos/medium/57820.jpg",
    "longitude": 13.649054,
    "latitude": 47.555040,
    "width": 500,
    "height": 333,
    "upload_date": "05 October 2006",
    "owner_id": 8060,
    "owner_name": "Norbert MAIER",
    "owner_url": "http://www.panoramio.com/user/8060"
  }, {
    "photo_id": 798312,
    "photo_title": "Riflettendo...",
    "photo_url": "http://www.panoramio.com/photo/798312",
    "photo_file_url": "http://mw2.google.com/mw-panoramio/photos/medium/798312.jpg",
    "longitude": 7.677534,
    "latitude": 45.069925,
    "width": 500,
    "height": 332,
    "upload_date": "12 February 2007",
    "owner_id": 159455,
    "owner_name": "©Franco Truscello",
    "owner_url": "http://www.panoramio.com/user/159455"
  }, {
    "photo_id": 7401432,
    "photo_title": "07-12-18_\"Arterias del Bosque\" PIXELECTA",
    "photo_url": "http://www.panoramio.com/photo/7401432",
    "photo_file_url": "http://mw2.google.com/mw-panoramio/photos/medium/7401432.jpg",
    "longitude": -2.775679,
    "latitude": 43.005338,
    "width": 500,
    "height": 333,
    "upload_date": "27 January 2008",
    "owner_id": 163655,
    "owner_name": "[[[   PIXELECTA   ]]]",
    "owner_url": "http://www.panoramio.com/user/163655"
  }, {
    "photo_id": 2584132,
    "photo_title": "Farm Tomita",
    "photo_url": "http://www.panoramio.com/photo/2584132",
    "photo_file_url": "http://mw2.google.com/mw-panoramio/photos/medium/2584132.jpg",
    "longitude": 142.426586,
    "latitude": 43.418889,
    "width": 500,
    "height": 375,
    "upload_date": "05 June 2007",
    "owner_id": 532882,
    "owner_name": "wisdomcomplex",
    "owner_url": "http://www.panoramio.com/user/532882"
  }, {
    "photo_id": 4670499,
    "photo_title": "El despertar de la naturaleza",
    "photo_url": "http://www.panoramio.com/photo/4670499",
    "photo_file_url": "http://mw2.google.com/mw-panoramio/photos/medium/4670499.jpg",
    "longitude": -73.227739,
    "latitude": -39.821285,
    "width": 500,
    "height": 371,
    "upload_date": "15 September 2007",
    "owner_id": 327310,
    "owner_name": "Erwin Woenckhaus",
    "owner_url": "http://www.panoramio.com/user/327310"
  }, {
    "photo_id": 5133875,
    "photo_title": "Lumi Vardar",
    "photo_url": "http://www.panoramio.com/photo/5133875",
    "photo_file_url": "http://mw2.google.com/mw-panoramio/photos/medium/5133875.jpg",
    "longitude": 21.075597,
    "latitude": 42.006671,
    "width": 500,
    "height": 375,
    "upload_date": "06 October 2007",
    "owner_id": 695042,
    "owner_name": "Neim Sejfuli ♦",
    "owner_url": "http://www.panoramio.com/user/695042"
  }, {
    "photo_id": 8309167,
    "photo_title": "Cueva de los Verdes",
    "photo_url": "http://www.panoramio.com/photo/8309167",
    "photo_file_url": "http://mw2.google.com/mw-panoramio/photos/medium/8309167.jpg",
    "longitude": -13.439734,
    "latitude": 29.161137,
    "width": 333,
    "height": 500,
    "upload_date": "05 March 2008",
    "owner_id": 1465912,
    "owner_name": "funtor",
    "owner_url": "http://www.panoramio.com/user/1465912"
  }, {
    "photo_id": 1756166,
    "photo_title": "The Pantheon, Rome, Italy",
    "photo_url": "http://www.panoramio.com/photo/1756166",
    "photo_file_url": "http://mw2.google.com/mw-panoramio/photos/medium/1756166.jpg",
    "longitude": 12.476842,
    "latitude": 41.898540,
    "width": 376,
    "height": 500,
    "upload_date": "13 April 2007",
    "owner_id": 140796,
    "owner_name": "rosina lamberti",
    "owner_url": "http://www.panoramio.com/user/140796"
  }, {
    "photo_id": 1831309,
    "photo_title": "Oak in blue - last one",
    "photo_url": "http://www.panoramio.com/photo/1831309",
    "photo_file_url": "http://mw2.google.com/mw-panoramio/photos/medium/1831309.jpg",
    "longitude": 10.771322,
    "latitude": 59.664143,
    "width": 326,
    "height": 500,
    "upload_date": "18 April 2007",
    "owner_id": 39160,
    "owner_name": "Snemann",
    "owner_url": "http://www.panoramio.com/user/39160"
  }, {
    "photo_id": 626487,
    "photo_title": "A harag napja",
    "photo_url": "http://www.panoramio.com/photo/626487",
    "photo_file_url": "http://mw2.google.com/mw-panoramio/photos/medium/626487.jpg",
    "longitude": 15.919275,
    "latitude": 43.589468,
    "width": 500,
    "height": 333,
    "upload_date": "30 January 2007",
    "owner_id": 109117,
    "owner_name": "Busa Péter",
    "owner_url": "http://www.panoramio.com/user/109117"
  }, {
    "photo_id": 202162,
    "photo_title": "Monument Valley",
    "photo_url": "http://www.panoramio.com/photo/202162",
    "photo_file_url": "http://mw2.google.com/mw-panoramio/photos/medium/202162.jpg",
    "longitude": -110.094552,
    "latitude": 36.976810,
    "width": 500,
    "height": 333,
    "upload_date": "21 December 2006",
    "owner_id": 40260,
    "owner_name": "Don Albonico",
    "owner_url": "http://www.panoramio.com/user/40260"
  }, {
    "photo_id": 791016,
    "photo_title": "Sossusvlei",
    "photo_url": "http://www.panoramio.com/photo/791016",
    "photo_file_url": "http://mw2.google.com/mw-panoramio/photos/medium/791016.jpg",
    "longitude": 15.289364,
    "latitude": -24.730656,
    "width": 500,
    "height": 333,
    "upload_date": "12 February 2007",
    "owner_id": 12736,
    "owner_name": "www.sliwi.de",
    "owner_url": "http://www.panoramio.com/user/12736"
  }, {
    "photo_id": 9760518,
    "photo_title": "Eglise Notre-Dame de la Couture",
    "photo_url": "http://www.panoramio.com/photo/9760518",
    "photo_file_url": "http://mw2.google.com/mw-panoramio/photos/medium/9760518.jpg",
    "longitude": 0.596437,
    "latitude": 49.082510,
    "width": 375,
    "height": 500,
    "upload_date": "29 April 2008",
    "owner_id": 1275480,
    "owner_name": "Nicolas Aubé",
    "owner_url": "http://www.panoramio.com/user/1275480"
  }, {
    "photo_id": 2097684,
    "photo_title": "",
    "photo_url": "http://www.panoramio.com/photo/2097684",
    "photo_file_url": "http://mw2.google.com/mw-panoramio/photos/medium/2097684.jpg",
    "longitude": -79.793916,
    "latitude": 43.299447,
    "width": 500,
    "height": 333,
    "upload_date": "06 May 2007",
    "owner_id": 17488,
    "owner_name": "John Gillett",
    "owner_url": "http://www.panoramio.com/user/17488"
  }, {
    "photo_id": 6851021,
    "photo_title": "Lumi Vardar-Sunset",
    "photo_url": "http://www.panoramio.com/photo/6851021",
    "photo_file_url": "http://mw2.google.com/mw-panoramio/photos/medium/6851021.jpg",
    "longitude": 21.077871,
    "latitude": 42.007532,
    "width": 458,
    "height": 500,
    "upload_date": "02 January 2008",
    "owner_id": 695042,
    "owner_name": "Neim Sejfuli ♦",
    "owner_url": "http://www.panoramio.com/user/695042"
  }, {
    "photo_id": 8137868,
    "photo_title": "Sunset Trace at Kotchi, Korea",
    "photo_url": "http://www.panoramio.com/photo/8137868",
    "photo_file_url": "http://mw2.google.com/mw-panoramio/photos/medium/8137868.jpg",
    "longitude": 126.333847,
    "latitude": 36.498597,
    "width": 500,
    "height": 500,
    "upload_date": "27 February 2008",
    "owner_id": 1221287,
    "owner_name": "TS Jeung",
    "owner_url": "http://www.panoramio.com/user/1221287"
  }, {
    "photo_id": 382104,
    "photo_title": "Meteora",
    "photo_url": "http://www.panoramio.com/photo/382104",
    "photo_file_url": "http://mw2.google.com/mw-panoramio/photos/medium/382104.jpg",
    "longitude": 21.616974,
    "latitude": 39.743626,
    "width": 500,
    "height": 500,
    "upload_date": "11 January 2007",
    "owner_id": 16880,
    "owner_name": "evgenidinev.com",
    "owner_url": "http://www.panoramio.com/user/16880"
  }, {
    "photo_id": 3399014,
    "photo_title": "Vue du Schneibstein vers l'Est",
    "photo_url": "http://www.panoramio.com/photo/3399014",
    "photo_file_url": "http://mw2.google.com/mw-panoramio/photos/medium/3399014.jpg",
    "longitude": 13.055191,
    "latitude": 47.562396,
    "width": 500,
    "height": 328,
    "upload_date": "19 July 2007",
    "owner_id": 78506,
    "owner_name": "Philippe Stoop",
    "owner_url": "http://www.panoramio.com/user/78506"
  }, {
    "photo_id": 29596,
    "photo_title": "Ciudad de Los Cielos",
    "photo_url": "http://www.panoramio.com/photo/29596",
    "photo_file_url": "http://mw2.google.com/mw-panoramio/photos/medium/29596.jpg",
    "longitude": -72.545900,
    "latitude": -13.165304,
    "width": 500,
    "height": 375,
    "upload_date": "01 July 2006",
    "owner_id": 4483,
    "owner_name": "Miguel Coranti",
    "owner_url": "http://www.panoramio.com/user/4483"
  }, {
    "photo_id": 1269713,
    "photo_title": "Rainbow over Olskårdvatnet near Kiberg, Finnmark, Norway",
    "photo_url": "http://www.panoramio.com/photo/1269713",
    "photo_file_url": "http://mw2.google.com/mw-panoramio/photos/medium/1269713.jpg",
    "longitude": 30.906601,
    "latitude": 70.295137,
    "width": 361,
    "height": 500,
    "upload_date": "11 March 2007",
    "owner_id": 66734,
    "owner_name": "Svein Solhaug",
    "owner_url": "http://www.panoramio.com/user/66734"
  }, {
    "photo_id": 507631,
    "photo_title": "Egy ábrándos reggelen",
    "photo_url": "http://www.panoramio.com/photo/507631",
    "photo_file_url": "http://mw2.google.com/mw-panoramio/photos/medium/507631.jpg",
    "longitude": 17.466667,
    "latitude": 47.866667,
    "width": 500,
    "height": 334,
    "upload_date": "20 January 2007",
    "owner_id": 109117,
    "owner_name": "Busa Péter",
    "owner_url": "http://www.panoramio.com/user/109117"
  }, {
    "photo_id": 722974,
    "photo_title": "Airdrie Vortex",
    "photo_url": "http://www.panoramio.com/photo/722974",
    "photo_file_url": "http://mw2.google.com/mw-panoramio/photos/medium/722974.jpg",
    "longitude": -114.087481,
    "latitude": 51.048544,
    "width": 500,
    "height": 323,
    "upload_date": "07 February 2007",
    "owner_id": 66847,
    "owner_name": "Lukas Novak",
    "owner_url": "http://www.panoramio.com/user/66847"
  }, {
    "photo_id": 1118007,
    "photo_title": "Moraine Lake, Banff NP (Canada)",
    "photo_url": "http://www.panoramio.com/photo/1118007",
    "photo_file_url": "http://mw2.google.com/mw-panoramio/photos/medium/1118007.jpg",
    "longitude": -116.177673,
    "latitude": 51.328091,
    "width": 500,
    "height": 326,
    "upload_date": "02 March 2007",
    "owner_id": 229005,
    "owner_name": "mypictures4u.com",
    "owner_url": "http://www.panoramio.com/user/229005"
  }, {
    "photo_id": 1343943,
    "photo_title": "Andes Mountains.Patagonia.Argentina",
    "photo_url": "http://www.panoramio.com/photo/1343943",
    "photo_file_url": "http://mw2.google.com/mw-panoramio/photos/medium/1343943.jpg",
    "longitude": -72.422905,
    "latitude": -49.381814,
    "width": 500,
    "height": 375,
    "upload_date": "16 March 2007",
    "owner_id": 281428,
    "owner_name": "avni_",
    "owner_url": "http://www.panoramio.com/user/281428"
  }, {
    "photo_id": 5637365,
    "photo_title": "Northen lights",
    "photo_url": "http://www.panoramio.com/photo/5637365",
    "photo_file_url": "http://mw2.google.com/mw-panoramio/photos/medium/5637365.jpg",
    "longitude": 28.599129,
    "latitude": 66.247365,
    "width": 500,
    "height": 333,
    "upload_date": "30 October 2007",
    "owner_id": 897591,
    "owner_name": "markku pirttimaa www.karhukuusamo.com",
    "owner_url": "http://www.panoramio.com/user/897591"
  }, {
    "photo_id": 241562,
    "photo_title": "Süd-Ostisland",
    "photo_url": "http://www.panoramio.com/photo/241562",
    "photo_file_url": "http://mw2.google.com/mw-panoramio/photos/medium/241562.jpg",
    "longitude": -17.512207,
    "latitude": 63.954261,
    "width": 500,
    "height": 326,
    "upload_date": "26 December 2006",
    "owner_id": 14774,
    "owner_name": "Frank Block",
    "owner_url": "http://www.panoramio.com/user/14774"
  }, {
    "photo_id": 48899,
    "photo_title": "Bellagio Fountain",
    "photo_url": "http://www.panoramio.com/photo/48899",
    "photo_file_url": "http://mw2.google.com/mw-panoramio/photos/medium/48899.jpg",
    "longitude": -115.174227,
    "latitude": 36.112778,
    "width": 500,
    "height": 375,
    "upload_date": "16 September 2006",
    "owner_id": 7190,
    "owner_name": "Perry Tang",
    "owner_url": "http://www.panoramio.com/user/7190"
  }, {
    "photo_id": 49822,
    "photo_title": "Baños termales en Alhama de Granada",
    "photo_url": "http://www.panoramio.com/photo/49822",
    "photo_file_url": "http://mw2.google.com/mw-panoramio/photos/medium/49822.jpg",
    "longitude": -3.983274,
    "latitude": 37.018248,
    "width": 374,
    "height": 500,
    "upload_date": "19 September 2006",
    "owner_id": 5477,
    "owner_name": "errece",
    "owner_url": "http://www.panoramio.com/user/5477"
  }, {
    "photo_id": 8248490,
    "photo_title": "Emmerald river",
    "photo_url": "http://www.panoramio.com/photo/8248490",
    "photo_file_url": "http://mw2.google.com/mw-panoramio/photos/medium/8248490.jpg",
    "longitude": 13.650362,
    "latitude": 46.340336,
    "width": 375,
    "height": 500,
    "upload_date": "02 March 2008",
    "owner_id": 763995,
    "owner_name": "Samo T.",
    "owner_url": "http://www.panoramio.com/user/763995"
  }, {
    "photo_id": 459528,
    "photo_title": "gassan",
    "photo_url": "http://www.panoramio.com/photo/459528",
    "photo_file_url": "http://mw2.google.com/mw-panoramio/photos/medium/459528.jpg",
    "longitude": 139.895782,
    "latitude": 38.282391,
    "width": 500,
    "height": 379,
    "upload_date": "16 January 2007",
    "owner_id": 86411,
    "owner_name": "中村脩-Osamu nakamura",
    "owner_url": "http://www.panoramio.com/user/86411"
  }, {
    "photo_id": 50203,
    "photo_title": "Die Hütte in Nyidalur an einem Septembermorgen ....",
    "photo_url": "http://www.panoramio.com/photo/50203",
    "photo_file_url": "http://mw2.google.com/mw-panoramio/photos/medium/50203.jpg",
    "longitude": -18.132935,
    "latitude": 64.762124,
    "width": 500,
    "height": 299,
    "upload_date": "20 September 2006",
    "owner_id": 7434,
    "owner_name": "baldinger reisen ag, waedenswil/switzerland",
    "owner_url": "http://www.panoramio.com/user/7434"
  }, {
    "photo_id": 51502,
    "photo_title": "eclipse",
    "photo_url": "http://www.panoramio.com/photo/51502",
    "photo_file_url": "http://mw2.google.com/mw-panoramio/photos/medium/51502.jpg",
    "longitude": -0.121665,
    "latitude": 51.500969,
    "width": 500,
    "height": 375,
    "upload_date": "24 September 2006",
    "owner_id": 6645,
    "owner_name": "JesusVillalba",
    "owner_url": "http://www.panoramio.com/user/6645"
  }, {
    "photo_id": 3671663,
    "photo_title": "Urbia traspuesta de sol, desde Aizkorri",
    "photo_url": "http://www.panoramio.com/photo/3671663",
    "photo_file_url": "http://mw2.google.com/mw-panoramio/photos/medium/3671663.jpg",
    "longitude": -2.324831,
    "latitude": 42.951271,
    "width": 500,
    "height": 298,
    "upload_date": "02 August 2007",
    "owner_id": 129297,
    "owner_name": "Enrique Ortiz de Zárate",
    "owner_url": "http://www.panoramio.com/user/129297"
  }, {
    "photo_id": 1928780,
    "photo_title": "God is looking",
    "photo_url": "http://www.panoramio.com/photo/1928780",
    "photo_file_url": "http://mw2.google.com/mw-panoramio/photos/medium/1928780.jpg",
    "longitude": 19.952137,
    "latitude": 50.106075,
    "width": 500,
    "height": 379,
    "upload_date": "25 April 2007",
    "owner_id": 12954,
    "owner_name": "Ziębol",
    "owner_url": "http://www.panoramio.com/user/12954"
  }, {
    "photo_id": 10068109,
    "photo_title": "#2 Steinerne Brücke über Lendkanal, Stone Bridge over Lendkanal, Klagenfurt, Austria",
    "photo_url": "http://www.panoramio.com/photo/10068109",
    "photo_file_url": "http://mw2.google.com/mw-panoramio/photos/medium/10068109.jpg",
    "longitude": 14.284313,
    "latitude": 46.620436,
    "width": 376,
    "height": 500,
    "upload_date": "09 May 2008",
    "owner_id": 1077251,
    "owner_name": "picsonthemove",
    "owner_url": "http://www.panoramio.com/user/1077251"
  }, {
    "photo_id": 8730264,
    "photo_title": "Large wave hits the North Pier, Tynemouth - Easter 2008",
    "photo_url": "http://www.panoramio.com/photo/8730264",
    "photo_file_url": "http://mw2.google.com/mw-panoramio/photos/medium/8730264.jpg",
    "longitude": -1.420702,
    "latitude": 55.020727,
    "width": 434,
    "height": 500,
    "upload_date": "22 March 2008",
    "owner_id": 1107262,
    "owner_name": "bobpercy",
    "owner_url": "http://www.panoramio.com/user/1107262"
  }, {
    "photo_id": 330436,
    "photo_title": "bolivia salar-de-uyuni",
    "photo_url": "http://www.panoramio.com/photo/330436",
    "photo_file_url": "http://mw2.google.com/mw-panoramio/photos/medium/330436.jpg",
    "longitude": -67.876625,
    "latitude": -20.180046,
    "width": 500,
    "height": 334,
    "upload_date": "07 January 2007",
    "owner_id": 69671,
    "owner_name": "illusandpics.com",
    "owner_url": "http://www.panoramio.com/user/69671"
  }, {
    "photo_id": 10287647,
    "photo_title": "A moment of silence   * Honorable mention may contest*",
    "photo_url": "http://www.panoramio.com/photo/10287647",
    "photo_file_url": "http://mw2.google.com/mw-panoramio/photos/medium/10287647.jpg",
    "longitude": 6.177192,
    "latitude": 52.218099,
    "width": 500,
    "height": 413,
    "upload_date": "16 May 2008",
    "owner_id": 523564,
    "owner_name": "Luud Riphagen",
    "owner_url": "http://www.panoramio.com/user/523564"
  }, {
    "photo_id": 436323,
    "photo_title": "zeikan",
    "photo_url": "http://www.panoramio.com/photo/436323",
    "photo_file_url": "http://mw2.google.com/mw-panoramio/photos/medium/436323.jpg",
    "longitude": 139.057925,
    "latitude": 37.930016,
    "width": 500,
    "height": 381,
    "upload_date": "15 January 2007",
    "owner_id": 86411,
    "owner_name": "中村脩-Osamu nakamura",
    "owner_url": "http://www.panoramio.com/user/86411"
  }, {
    "photo_id": 298350,
    "photo_title": "What are you looking at ?",
    "photo_url": "http://www.panoramio.com/photo/298350",
    "photo_file_url": "http://mw2.google.com/mw-panoramio/photos/medium/298350.jpg",
    "longitude": -109.276510,
    "latitude": -27.125567,
    "width": 500,
    "height": 332,
    "upload_date": "04 January 2007",
    "owner_id": 57893,
    "owner_name": "ThoiryK",
    "owner_url": "http://www.panoramio.com/user/57893"
  }, {
    "photo_id": 85618,
    "photo_title": "Minas de Mazarrón",
    "photo_url": "http://www.panoramio.com/photo/85618",
    "photo_file_url": "http://mw2.google.com/mw-panoramio/photos/medium/85618.jpg",
    "longitude": -1.331406,
    "latitude": 37.599544,
    "width": 500,
    "height": 334,
    "upload_date": "24 November 2006",
    "owner_id": 10969,
    "owner_name": "Juanra",
    "owner_url": "http://www.panoramio.com/user/10969"
  }, {
    "photo_id": 3804107,
    "photo_title": "_Feloeka on the Nile_    (Aswan - Egypt)",
    "photo_url": "http://www.panoramio.com/photo/3804107",
    "photo_file_url": "http://mw2.google.com/mw-panoramio/photos/medium/3804107.jpg",
    "longitude": 32.887723,
    "latitude": 24.095443,
    "width": 500,
    "height": 350,
    "upload_date": "08 August 2007",
    "owner_id": 366746,
    "owner_name": "T NL",
    "owner_url": "http://www.panoramio.com/user/366746"
  }, {
    "photo_id": 369885,
    "photo_title": "Monarque on the beach",
    "photo_url": "http://www.panoramio.com/photo/369885",
    "photo_file_url": "http://mw2.google.com/mw-panoramio/photos/medium/369885.jpg",
    "longitude": -70.563126,
    "latitude": 43.308816,
    "width": 500,
    "height": 371,
    "upload_date": "10 January 2007",
    "owner_id": 78738,
    "owner_name": "Nicola Vachon",
    "owner_url": "http://www.panoramio.com/user/78738"
  }, {
    "photo_id": 4819425,
    "photo_title": "Zeeland Magic, 1",
    "photo_url": "http://www.panoramio.com/photo/4819425",
    "photo_file_url": "http://mw2.google.com/mw-panoramio/photos/medium/4819425.jpg",
    "longitude": 3.479254,
    "latitude": 51.501169,
    "width": 492,
    "height": 500,
    "upload_date": "22 September 2007",
    "owner_id": 213866,
    "owner_name": "Nicolas Mertens",
    "owner_url": "http://www.panoramio.com/user/213866"
  }, {
    "photo_id": 88122,
    "photo_title": "Arpy Lake - Aosta Valley - Italy",
    "photo_url": "http://www.panoramio.com/photo/88122",
    "photo_file_url": "http://mw2.google.com/mw-panoramio/photos/medium/88122.jpg",
    "longitude": 6.999636,
    "latitude": 45.723008,
    "width": 375,
    "height": 500,
    "upload_date": "28 November 2006",
    "owner_id": 11098,
    "owner_name": "Michele Masnata",
    "owner_url": "http://www.panoramio.com/user/11098"
  }, {
    "photo_id": 10219582,
    "photo_title": "MITTENS ALONG THE ROAD",
    "photo_url": "http://www.panoramio.com/photo/10219582",
    "photo_file_url": "http://mw2.google.com/mw-panoramio/photos/medium/10219582.jpg",
    "longitude": -110.091248,
    "latitude": 36.970810,
    "width": 500,
    "height": 462,
    "upload_date": "14 May 2008",
    "owner_id": 864987,
    "owner_name": "antorenz",
    "owner_url": "http://www.panoramio.com/user/864987"
  }, {
    "photo_id": 558167,
    "photo_title": "Táltostánc",
    "photo_url": "http://www.panoramio.com/photo/558167",
    "photo_file_url": "http://mw2.google.com/mw-panoramio/photos/medium/558167.jpg",
    "longitude": 18.001614,
    "latitude": 47.409038,
    "width": 417,
    "height": 500,
    "upload_date": "24 January 2007",
    "owner_id": 109117,
    "owner_name": "Busa Péter",
    "owner_url": "http://www.panoramio.com/user/109117"
  }, {
    "photo_id": 7113068,
    "photo_title": "Bálavár",
    "photo_url": "http://www.panoramio.com/photo/7113068",
    "photo_file_url": "http://mw2.google.com/mw-panoramio/photos/medium/7113068.jpg",
    "longitude": 17.522507,
    "latitude": 47.775560,
    "width": 500,
    "height": 336,
    "upload_date": "14 January 2008",
    "owner_id": 109117,
    "owner_name": "Busa Péter",
    "owner_url": "http://www.panoramio.com/user/109117"
  }, {
    "photo_id": 2920885,
    "photo_title": "Rainbow",
    "photo_url": "http://www.panoramio.com/photo/2920885",
    "photo_file_url": "http://mw2.google.com/mw-panoramio/photos/medium/2920885.jpg",
    "longitude": 10.620818,
    "latitude": 47.770960,
    "width": 375,
    "height": 500,
    "upload_date": "24 June 2007",
    "owner_id": 123698,
    "owner_name": "© Kojak",
    "owner_url": "http://www.panoramio.com/user/123698"
  }, {
    "photo_id": 2499825,
    "photo_title": "Rosina lamberti,sunset, templestowe",
    "photo_url": "http://www.panoramio.com/photo/2499825",
    "photo_file_url": "http://mw2.google.com/mw-panoramio/photos/medium/2499825.jpg",
    "longitude": 145.143299,
    "latitude": -37.770104,
    "width": 500,
    "height": 359,
    "upload_date": "01 June 2007",
    "owner_id": 140796,
    "owner_name": "rosina lamberti",
    "owner_url": "http://www.panoramio.com/user/140796"
  }, {
    "photo_id": 4536639,
    "photo_title": "Lago di Carezza",
    "photo_url": "http://www.panoramio.com/photo/4536639",
    "photo_file_url": "http://mw2.google.com/mw-panoramio/photos/medium/4536639.jpg",
    "longitude": 11.575298,
    "latitude": 46.410227,
    "width": 500,
    "height": 393,
    "upload_date": "09 September 2007",
    "owner_id": 578163,
    "owner_name": "Margherita-Italy",
    "owner_url": "http://www.panoramio.com/user/578163"
  }, {
    "photo_id": 314957,
    "photo_title": "\"He it is, who coming after me...\" -    St. John Baptist on the Charles Bridge ",
    "photo_url": "http://www.panoramio.com/photo/314957",
    "photo_file_url": "http://mw2.google.com/mw-panoramio/photos/medium/314957.jpg",
    "longitude": 14.410307,
    "latitude": 50.086597,
    "width": 335,
    "height": 500,
    "upload_date": "06 January 2007",
    "owner_id": 57869,
    "owner_name": "NAGY Albert",
    "owner_url": "http://www.panoramio.com/user/57869"
  }, {
    "photo_id": 507214,
    "photo_title": "A változás ideje",
    "photo_url": "http://www.panoramio.com/photo/507214",
    "photo_file_url": "http://mw2.google.com/mw-panoramio/photos/medium/507214.jpg",
    "longitude": 17.980499,
    "latitude": 47.390912,
    "width": 500,
    "height": 335,
    "upload_date": "20 January 2007",
    "owner_id": 109117,
    "owner_name": "Busa Péter",
    "owner_url": "http://www.panoramio.com/user/109117"
  }, {
    "photo_id": 5551561,
    "photo_title": "New light old trees26-10-2007",
    "photo_url": "http://www.panoramio.com/photo/5551561",
    "photo_file_url": "http://mw2.google.com/mw-panoramio/photos/medium/5551561.jpg",
    "longitude": -5.663366,
    "latitude": 55.390130,
    "width": 338,
    "height": 500,
    "upload_date": "26 October 2007",
    "owner_id": 599676,
    "owner_name": "mossip",
    "owner_url": "http://www.panoramio.com/user/599676"
  }, {
    "photo_id": 67338,
    "photo_title": "Salar de Uyuni",
    "photo_url": "http://www.panoramio.com/photo/67338",
    "photo_file_url": "http://mw2.google.com/mw-panoramio/photos/medium/67338.jpg",
    "longitude": -67.539825,
    "latitude": -20.439882,
    "width": 375,
    "height": 500,
    "upload_date": "20 October 2006",
    "owner_id": 9080,
    "owner_name": "Marco Teodonio",
    "owner_url": "http://www.panoramio.com/user/9080"
  }, {
    "photo_id": 436354,
    "photo_title": "oonogame",
    "photo_url": "http://www.panoramio.com/photo/436354",
    "photo_file_url": "http://mw2.google.com/mw-panoramio/photos/medium/436354.jpg",
    "longitude": 138.461380,
    "latitude": 38.311760,
    "width": 387,
    "height": 500,
    "upload_date": "15 January 2007",
    "owner_id": 86411,
    "owner_name": "中村脩-Osamu nakamura",
    "owner_url": "http://www.panoramio.com/user/86411"
  }, {
    "photo_id": 10068358,
    "photo_title": "#08 Reflections in Lendkanal, Klagenfurt, Scenery June 2008",
    "photo_url": "http://www.panoramio.com/photo/10068358",
    "photo_file_url": "http://mw2.google.com/mw-panoramio/photos/medium/10068358.jpg",
    "longitude": 14.294415,
    "latitude": 46.622326,
    "width": 375,
    "height": 500,
    "upload_date": "09 May 2008",
    "owner_id": 1077251,
    "owner_name": "picsonthemove",
    "owner_url": "http://www.panoramio.com/user/1077251"
  }, {
    "photo_id": 1440137,
    "photo_title": "Horseshoe Bend",
    "photo_url": "http://www.panoramio.com/photo/1440137",
    "photo_file_url": "http://mw2.google.com/mw-panoramio/photos/medium/1440137.jpg",
    "longitude": -111.510887,
    "latitude": 36.882641,
    "width": 500,
    "height": 391,
    "upload_date": "22 March 2007",
    "owner_id": 286729,
    "owner_name": "jimwitkowski",
    "owner_url": "http://www.panoramio.com/user/286729"
  }, {
    "photo_id": 4809439,
    "photo_title": "Going Nowhere Fast",
    "photo_url": "http://www.panoramio.com/photo/4809439",
    "photo_file_url": "http://mw2.google.com/mw-panoramio/photos/medium/4809439.jpg",
    "longitude": -119.013970,
    "latitude": 38.211420,
    "width": 375,
    "height": 500,
    "upload_date": "21 September 2007",
    "owner_id": 376395,
    "owner_name": "JeffSullivan (www.MyPhotoGuides.com)",
    "owner_url": "http://www.panoramio.com/user/376395"
  }, {
    "photo_id": 7806281,
    "photo_title": "Moon&Mosque",
    "photo_url": "http://www.panoramio.com/photo/7806281",
    "photo_file_url": "http://mw2.google.com/mw-panoramio/photos/medium/7806281.jpg",
    "longitude": 21.138296,
    "latitude": 41.960958,
    "width": 500,
    "height": 344,
    "upload_date": "13 February 2008",
    "owner_id": 695042,
    "owner_name": "Neim Sejfuli ♦",
    "owner_url": "http://www.panoramio.com/user/695042"
  }, {
    "photo_id": 821388,
    "photo_title": "Aurora Borealis with frosty fog from the sea in front",
    "photo_url": "http://www.panoramio.com/photo/821388",
    "photo_file_url": "http://mw2.google.com/mw-panoramio/photos/medium/821388.jpg",
    "longitude": 23.229733,
    "latitude": 69.962616,
    "width": 500,
    "height": 256,
    "upload_date": "14 February 2007",
    "owner_id": 56091,
    "owner_name": "Kjetil Vaage Øie",
    "owner_url": "http://www.panoramio.com/user/56091"
  }, {
    "photo_id": 946841,
    "photo_title": "Maroon Bells",
    "photo_url": "http://www.panoramio.com/photo/946841",
    "photo_file_url": "http://mw2.google.com/mw-panoramio/photos/medium/946841.jpg",
    "longitude": -106.948385,
    "latitude": 39.095030,
    "width": 500,
    "height": 375,
    "upload_date": "21 February 2007",
    "owner_id": 163881,
    "owner_name": "faisasy",
    "owner_url": "http://www.panoramio.com/user/163881"
  }, {
    "photo_id": 3719882,
    "photo_title": "Puesta de Sol(Oest.Portugal)",
    "photo_url": "http://www.panoramio.com/photo/3719882",
    "photo_file_url": "http://mw2.google.com/mw-panoramio/photos/medium/3719882.jpg",
    "longitude": -9.286709,
    "latitude": 39.392428,
    "width": 375,
    "height": 500,
    "upload_date": "04 August 2007",
    "owner_id": 83865,
    "owner_name": "Epi F.Villanueva",
    "owner_url": "http://www.panoramio.com/user/83865"
  }, {
    "photo_id": 3418114,
    "photo_title": "Fény-Kép",
    "photo_url": "http://www.panoramio.com/photo/3418114",
    "photo_file_url": "http://mw2.google.com/mw-panoramio/photos/medium/3418114.jpg",
    "longitude": 17.511692,
    "latitude": 47.837127,
    "width": 500,
    "height": 333,
    "upload_date": "20 July 2007",
    "owner_id": 689769,
    "owner_name": "Ponty István",
    "owner_url": "http://www.panoramio.com/user/689769"
  }, {
    "photo_id": 255257,
    "photo_title": "Croatia, Brela - Sunset on the Beach - near  \"Kamen Brela\" rock, symbol of this adriatic town",
    "photo_url": "http://www.panoramio.com/photo/255257",
    "photo_file_url": "http://mw2.google.com/mw-panoramio/photos/medium/255257.jpg",
    "longitude": 16.922604,
    "latitude": 43.372309,
    "width": 500,
    "height": 332,
    "upload_date": "28 December 2006",
    "owner_id": 52119,
    "owner_name": "RomanV",
    "owner_url": "http://www.panoramio.com/user/52119"
  }, {
    "photo_id": 2346040,
    "photo_title": "Huncut fények",
    "photo_url": "http://www.panoramio.com/photo/2346040",
    "photo_file_url": "http://mw2.google.com/mw-panoramio/photos/medium/2346040.jpg",
    "longitude": 15.539217,
    "latitude": 47.670589,
    "width": 500,
    "height": 334,
    "upload_date": "22 May 2007",
    "owner_id": 109117,
    "owner_name": "Busa Péter",
    "owner_url": "http://www.panoramio.com/user/109117"
  }, {
    "photo_id": 1235900,
    "photo_title": "Fog, Hemlocks and Cedars ",
    "photo_url": "http://www.panoramio.com/photo/1235900",
    "photo_file_url": "http://mw2.google.com/mw-panoramio/photos/medium/1235900.jpg",
    "longitude": -131.682816,
    "latitude": 52.885706,
    "width": 500,
    "height": 352,
    "upload_date": "09 March 2007",
    "owner_id": 232099,
    "owner_name": "mabut",
    "owner_url": "http://www.panoramio.com/user/232099"
  }, {
    "photo_id": 111554,
    "photo_title": "Lahna",
    "photo_url": "http://www.panoramio.com/photo/111554",
    "photo_file_url": "http://mw2.google.com/mw-panoramio/photos/medium/111554.jpg",
    "longitude": 27.557831,
    "latitude": 42.550551,
    "width": 500,
    "height": 357,
    "upload_date": "11 December 2006",
    "owner_id": 16880,
    "owner_name": "evgenidinev.com",
    "owner_url": "http://www.panoramio.com/user/16880"
  }, {
    "photo_id": 280112,
    "photo_title": "dune02",
    "photo_url": "http://www.panoramio.com/photo/280112",
    "photo_file_url": "http://mw2.google.com/mw-panoramio/photos/medium/280112.jpg",
    "longitude": -3.985291,
    "latitude": 31.156408,
    "width": 500,
    "height": 338,
    "upload_date": "01 January 2007",
    "owner_id": 58867,
    "owner_name": "Lachaud Franck",
    "owner_url": "http://www.panoramio.com/user/58867"
  }, {
    "photo_id": 5984,
    "photo_title": "Chott El Jerid",
    "photo_url": "http://www.panoramio.com/photo/5984",
    "photo_file_url": "http://mw2.google.com/mw-panoramio/photos/medium/5984.jpg",
    "longitude": 8.358536,
    "latitude": 33.715202,
    "width": 347,
    "height": 500,
    "upload_date": "17 December 2005",
    "owner_id": 989,
    "owner_name": "Mrgud",
    "owner_url": "http://www.panoramio.com/user/989"
  }, {
    "photo_id": 25513,
    "photo_title": "Catarata Rio Celeste",
    "photo_url": "http://www.panoramio.com/photo/25513",
    "photo_file_url": "http://mw2.google.com/mw-panoramio/photos/medium/25513.jpg",
    "longitude": -85.046539,
    "latitude": 10.643400,
    "width": 375,
    "height": 500,
    "upload_date": "17 June 2006",
    "owner_id": 4112,
    "owner_name": "Roberto Garcia",
    "owner_url": "http://www.panoramio.com/user/4112"
  }, {
    "photo_id": 35502,
    "photo_title": "roques",
    "photo_url": "http://www.panoramio.com/photo/35502",
    "photo_file_url": "http://mw2.google.com/mw-panoramio/photos/medium/35502.jpg",
    "longitude": -66.774902,
    "latitude": 11.802834,
    "width": 500,
    "height": 375,
    "upload_date": "29 July 2006",
    "owner_id": 3360,
    "owner_name": "ozzy",
    "owner_url": "http://www.panoramio.com/user/3360"
  }, {
    "photo_id": 1656020,
    "photo_title": "Palmeras",
    "photo_url": "http://www.panoramio.com/photo/1656020",
    "photo_file_url": "http://mw2.google.com/mw-panoramio/photos/medium/1656020.jpg",
    "longitude": -1.211929,
    "latitude": 37.935804,
    "width": 500,
    "height": 333,
    "upload_date": "06 April 2007",
    "owner_id": 10969,
    "owner_name": "Juanra",
    "owner_url": "http://www.panoramio.com/user/10969"
  }, {
    "photo_id": 58341,
    "photo_title": "Lio Piccolo - Palazzetto Boldú",
    "photo_url": "http://www.panoramio.com/photo/58341",
    "photo_file_url": "http://mw2.google.com/mw-panoramio/photos/medium/58341.jpg",
    "longitude": 12.489095,
    "latitude": 45.490615,
    "width": 500,
    "height": 333,
    "upload_date": "07 October 2006",
    "owner_id": 8060,
    "owner_name": "Norbert MAIER",
    "owner_url": "http://www.panoramio.com/user/8060"
  }, {
    "photo_id": 416310,
    "photo_title": "Lake of Glass Falls",
    "photo_url": "http://www.panoramio.com/photo/416310",
    "photo_file_url": "http://mw2.google.com/mw-panoramio/photos/medium/416310.jpg",
    "longitude": -105.664272,
    "latitude": 40.283192,
    "width": 500,
    "height": 374,
    "upload_date": "13 January 2007",
    "owner_id": 87752,
    "owner_name": "Richard Ryer",
    "owner_url": "http://www.panoramio.com/user/87752"
  }, {
    "photo_id": 8148031,
    "photo_title": "Der Morgen in der Camargue .....",
    "photo_url": "http://www.panoramio.com/photo/8148031",
    "photo_file_url": "http://mw2.google.com/mw-panoramio/photos/medium/8148031.jpg",
    "longitude": 4.451180,
    "latitude": 43.507102,
    "width": 500,
    "height": 351,
    "upload_date": "27 February 2008",
    "owner_id": 7434,
    "owner_name": "baldinger reisen ag, waedenswil/switzerland",
    "owner_url": "http://www.panoramio.com/user/7434"
  }, {
    "photo_id": 1088575,
    "photo_title": "Lampion",
    "photo_url": "http://www.panoramio.com/photo/1088575",
    "photo_file_url": "http://mw2.google.com/mw-panoramio/photos/medium/1088575.jpg",
    "longitude": 17.698631,
    "latitude": 47.521374,
    "width": 500,
    "height": 397,
    "upload_date": "28 February 2007",
    "owner_id": 109117,
    "owner_name": "Busa Péter",
    "owner_url": "http://www.panoramio.com/user/109117"
  }, {
    "photo_id": 771169,
    "photo_title": "Bloodred evening sky, near Zutphen",
    "photo_url": "http://www.panoramio.com/photo/771169",
    "photo_file_url": "http://mw2.google.com/mw-panoramio/photos/medium/771169.jpg",
    "longitude": 6.110770,
    "latitude": 52.113681,
    "width": 500,
    "height": 500,
    "upload_date": "11 February 2007",
    "owner_id": 161254,
    "owner_name": "fotoartistry",
    "owner_url": "http://www.panoramio.com/user/161254"
  }, {
    "photo_id": 2334149,
    "photo_title": "",
    "photo_url": "http://www.panoramio.com/photo/2334149",
    "photo_file_url": "http://mw2.google.com/mw-panoramio/photos/medium/2334149.jpg",
    "longitude": 0.493269,
    "latitude": 40.904204,
    "width": 500,
    "height": 304,
    "upload_date": "21 May 2007",
    "owner_id": 3022,
    "owner_name": "Arcadi",
    "owner_url": "http://www.panoramio.com/user/3022"
  }, {
    "photo_id": 41688,
    "photo_title": "Unbelieveable sunrise colors at Lofoten",
    "photo_url": "http://www.panoramio.com/photo/41688",
    "photo_file_url": "http://mw2.google.com/mw-panoramio/photos/medium/41688.jpg",
    "longitude": 14.256134,
    "latitude": 68.239368,
    "width": 500,
    "height": 375,
    "upload_date": "26 August 2006",
    "owner_id": 3404,
    "owner_name": "Csongor Böröczky",
    "owner_url": "http://www.panoramio.com/user/3404"
  }, {
    "photo_id": 6953,
    "photo_title": "Last moment of the day",
    "photo_url": "http://www.panoramio.com/photo/6953",
    "photo_file_url": "http://mw2.google.com/mw-panoramio/photos/medium/6953.jpg",
    "longitude": 2.191944,
    "latitude": 41.578599,
    "width": 500,
    "height": 320,
    "upload_date": "16 January 2006",
    "owner_id": 414,
    "owner_name": "Sonia Villegas",
    "owner_url": "http://www.panoramio.com/user/414"
  }, {
    "photo_id": 10895432,
    "photo_title": "Карагайская сосна",
    "photo_url": "http://www.panoramio.com/photo/10895432",
    "photo_file_url": "http://mw2.google.com/mw-panoramio/photos/medium/10895432.jpg",
    "longitude": 57.886791,
    "latitude": 51.644708,
    "width": 333,
    "height": 500,
    "upload_date": "04 June 2008",
    "owner_id": 904057,
    "owner_name": "Б.Ярцев",
    "owner_url": "http://www.panoramio.com/user/904057"
  }, {
    "photo_id": 1446812,
    "photo_title": "Elfland",
    "photo_url": "http://www.panoramio.com/photo/1446812",
    "photo_file_url": "http://mw2.google.com/mw-panoramio/photos/medium/1446812.jpg",
    "longitude": 17.808323,
    "latitude": 47.349408,
    "width": 345,
    "height": 500,
    "upload_date": "22 March 2007",
    "owner_id": 109117,
    "owner_name": "Busa Péter",
    "owner_url": "http://www.panoramio.com/user/109117"
  }, {
    "photo_id": 4898495,
    "photo_title": "Elfendel",
    "photo_url": "http://www.panoramio.com/photo/4898495",
    "photo_file_url": "http://mw2.google.com/mw-panoramio/photos/medium/4898495.jpg",
    "longitude": 17.724380,
    "latitude": 47.261058,
    "width": 500,
    "height": 325,
    "upload_date": "25 September 2007",
    "owner_id": 109117,
    "owner_name": "Busa Péter",
    "owner_url": "http://www.panoramio.com/user/109117"
  }, {
    "photo_id": 911298,
    "photo_title": "View from Nordenskiöldtoppen, Svalbard",
    "photo_url": "http://www.panoramio.com/photo/911298",
    "photo_file_url": "http://mw2.google.com/mw-panoramio/photos/medium/911298.jpg",
    "longitude": 15.314941,
    "latitude": 78.179588,
    "width": 500,
    "height": 287,
    "upload_date": "20 February 2007",
    "owner_id": 66734,
    "owner_name": "Svein Solhaug",
    "owner_url": "http://www.panoramio.com/user/66734"
  }, {
    "photo_id": 2169236,
    "photo_title": "sunset",
    "photo_url": "http://www.panoramio.com/photo/2169236",
    "photo_file_url": "http://mw2.google.com/mw-panoramio/photos/medium/2169236.jpg",
    "longitude": 145.128708,
    "latitude": -37.759859,
    "width": 333,
    "height": 500,
    "upload_date": "11 May 2007",
    "owner_id": 140796,
    "owner_name": "rosina lamberti",
    "owner_url": "http://www.panoramio.com/user/140796"
  }, {
    "photo_id": 237466,
    "photo_title": "wierzchon.com warsaw podzamcze",
    "photo_url": "http://www.panoramio.com/photo/237466",
    "photo_file_url": "http://mw2.google.com/mw-panoramio/photos/medium/237466.jpg",
    "longitude": 21.011347,
    "latitude": 52.253852,
    "width": 335,
    "height": 500,
    "upload_date": "26 December 2006",
    "owner_id": 47836,
    "owner_name": "Andrzej Wierzchon",
    "owner_url": "http://www.panoramio.com/user/47836"
  },